[
    {
        "altitude": "21",
        "bikes": "16",
        "id": "1",
        "latitude": "41.397952",
        "longitude": "2.180042",
        "nearbyStations": "24, 369, 387, 426",
        "slots": "10",
        "status": "OPN",
        "streetName": "Gran Via Corts Catalanes",
        "streetNumber": "760",
        "type": "BIKE",
        "updateTime": "01/01/19 00:05:13"
    },
    {
        "altitude": "21",
        "bikes": "18",
        "id": "2",
        "latitude": "41.39553",
        "longitude": "2.17706",
        "nearbyStations": "360, 368, 387, 414",
        "slots": "8",
        "status": "OPN",
        "streetName": "Roger de Flor/ Gran Vía",
        "streetNumber": "126",
        "type": "BIKE",
        "updateTime": "01/01/19 00:05:13"
    },
    {
        "altitude": "22",
        "bikes": "22",
        "id": "3",
        "latitude": "41.394055",
        "longitude": "2.181299",
        "nearbyStations": "4, 6, 119, 419",
        "slots": "2",
        "status": "OPN",
        "streetName": "Nàpols",
        "streetNumber": "82",
        "type": "BIKE",
        "updateTime": "01/01/19 00:05:13"
    },
    {
        "altitude": "21",
        "bikes": "21",
        "id": "4",
        "latitude": "41.39348",
        "longitude": "2.181555",
        "nearbyStations": "3, 5, 359, 419",
        "slots": "0",
        "status": "OPN",
        "streetName": "Ribes",
        "streetNumber": "13",
        "type": "BIKE",
        "updateTime": "01/01/19 00:05:13"
    },
    {
        "altitude": "16",
        "bikes": "39",
        "id": "5",
        "latitude": "41.391075",
        "longitude": "2.180223",
        "nearbyStations": "6, 7, 359, 418",
        "slots": "0",
        "status": "OPN",
        "streetName": "Pg Lluís Companys",
        "streetNumber": "11",
        "type": "BIKE",
        "updateTime": "01/01/19 00:05:13"
    },
    {
        "altitude": "16",
        "bikes": "38",
        "id": "6",
        "latitude": "41.391349",
        "longitude": "2.18061",
        "nearbyStations": "5, 8, 359, 419",
        "slots": "0",
        "status": "OPN",
        "streetName": "Pg Lluís Companys",
        "streetNumber": "18",
        "type": "BIKE",
        "updateTime": "01/01/19 00:05:13"
    },
    {
        "altitude": "16",
        "bikes": "24",
        "id": "7",
        "latitude": "41.388856",
        "longitude": "2.183251",
        "nearbyStations": "8, 118, 389",
        "slots": "1",
        "status": "OPN",
        "streetName": "Pg Lluís Companys",
        "streetNumber": "1",
        "type": "BIKE",
        "updateTime": "01/01/19 00:05:13"
    },
    {
        "altitude": "11",
        "bikes": "23",
        "id": "8",
        "latitude": "41.389088",
        "longitude": "2.183568",
        "nearbyStations": "6, 118, 389",
        "slots": "3",
        "status": "OPN",
        "streetName": "Pg Lluís Companys",
        "streetNumber": "2",
        "type": "BIKE",
        "updateTime": "01/01/19 00:05:13"
    },
    {
        "altitude": "11",
        "bikes": "26",
        "id": "9",
        "latitude": "41.384532",
        "longitude": "2.184921",
        "nearbyStations": "14, 40, 115, 389, 390",
        "slots": "1",
        "status": "OPN",
        "streetName": "Marquès de l'Argentera",
        "streetNumber": "13",
        "type": "BIKE",
        "updateTime": "01/01/19 00:05:13"
    },
    {
        "altitude": "1",
        "bikes": "20",
        "id": "11",
        "latitude": "41.381689",
        "longitude": "2.193914",
        "nearbyStations": "116, 124, 125, 396",
        "slots": "1",
        "status": "OPN",
        "streetName": "Passeig Marítim",
        "streetNumber": "19",
        "type": "BIKE",
        "updateTime": "01/01/19 00:05:13"
    },
    {
        "altitude": "0",
        "bikes": "18",
        "id": "12",
        "latitude": "41.384538",
        "longitude": "2.195679",
        "nearbyStations": "11, 13, 116, 396",
        "slots": "11",
        "status": "OPN",
        "streetName": "Pg Marítim Barceloneta",
        "streetNumber": "23",
        "type": "BIKE",
        "updateTime": "01/01/19 00:05:13"
    },
    {
        "altitude": "1",
        "bikes": "25",
        "id": "13",
        "latitude": "41.386861",
        "longitude": "2.195761",
        "nearbyStations": "11, 12, 46, 69",
        "slots": "7",
        "status": "OPN",
        "streetName": "Avinguda Litoral",
        "streetNumber": "16",
        "type": "BIKE",
        "updateTime": "01/01/19 00:05:13"
    },
    {
        "altitude": "11",
        "bikes": "26",
        "id": "14",
        "latitude": "41.384675",
        "longitude": "2.185039",
        "nearbyStations": "9, 40, 115, 389, 390",
        "slots": "1",
        "status": "OPN",
        "streetName": "Avinguda del Marques Argentera",
        "streetNumber": "15",
        "type": "BIKE",
        "updateTime": "01/01/19 00:05:13"
    },
    {
        "altitude": "40",
        "bikes": "17",
        "id": "15",
        "latitude": "41.394812",
        "longitude": "2.171189",
        "nearbyStations": "23, 25, 362, 413",
        "slots": "1",
        "status": "OPN",
        "streetName": "Girona",
        "streetNumber": "68",
        "type": "BIKE",
        "updateTime": "01/01/19 00:05:13"
    },
    {
        "altitude": "18",
        "bikes": "14",
        "id": "16",
        "latitude": "41.39827",
        "longitude": "2.186708",
        "nearbyStations": "17, 44, 48, 372",
        "slots": "7",
        "status": "OPN",
        "streetName": "Av. Meridiana",
        "streetNumber": "47",
        "type": "BIKE",
        "updateTime": "01/01/19 00:05:13"
    },
    {
        "altitude": "18",
        "bikes": "9",
        "id": "17",
        "latitude": "41.398237",
        "longitude": "2.186711",
        "nearbyStations": "16, 48, 211, 372",
        "slots": "11",
        "status": "OPN",
        "streetName": "Av. Meridiana",
        "streetNumber": "47",
        "type": "BIKE",
        "updateTime": "01/01/19 00:05:13"
    },
    {
        "altitude": "49",
        "bikes": "2",
        "id": "18",
        "latitude": "41.406086",
        "longitude": "2.174167",
        "nearbyStations": "19, 28, 120, 370",
        "slots": "22",
        "status": "OPN",
        "streetName": "Rosselló",
        "streetNumber": "453",
        "type": "BIKE",
        "updateTime": "01/01/19 00:05:13"
    },
    {
        "altitude": "49",
        "bikes": "0",
        "id": "19",
        "latitude": "41.403282",
        "longitude": "2.170726",
        "nearbyStations": "18, 22, 29, 370",
        "slots": "29",
        "status": "OPN",
        "streetName": "Rosselló",
        "streetNumber": "354",
        "type": "BIKE",
        "updateTime": "01/01/19 00:05:13"
    },
    {
        "altitude": "59",
        "bikes": "3",
        "id": "20",
        "latitude": "41.410166",
        "longitude": "2.175759",
        "nearbyStations": "21, 28, 164, 177, 278",
        "slots": "16",
        "status": "OPN",
        "streetName": "Cartagena",
        "streetNumber": "308",
        "type": "BIKE",
        "updateTime": "01/01/19 00:05:13"
    },
    {
        "altitude": "59",
        "bikes": "0",
        "id": "21",
        "latitude": "41.410897",
        "longitude": "2.17402",
        "nearbyStations": "20, 28, 164, 278",
        "slots": "18",
        "status": "OPN",
        "streetName": "Sant Antoni Maria Claret",
        "streetNumber": "214",
        "type": "BIKE",
        "updateTime": "01/01/19 00:05:13"
    },
    {
        "altitude": "28",
        "bikes": "4",
        "id": "22",
        "latitude": "41.401684",
        "longitude": "2.17568",
        "nearbyStations": "29, 120, 369, 370",
        "slots": "15",
        "status": "OPN",
        "streetName": "Sardenya",
        "streetNumber": "292",
        "type": "BIKE",
        "updateTime": "01/01/19 00:05:13"
    },
    {
        "altitude": "42",
        "bikes": "18",
        "id": "23",
        "latitude": "41.392526",
        "longitude": "2.171812",
        "nearbyStations": "15, 360, 363, 413",
        "slots": "7",
        "status": "OPN",
        "streetName": "Bruc",
        "streetNumber": "45",
        "type": "BIKE",
        "updateTime": "01/01/19 00:05:13"
    },
    {
        "altitude": "30",
        "bikes": "12",
        "id": "24",
        "latitude": "41.400659",
        "longitude": "2.179111",
        "nearbyStations": "1, 30, 369, 426",
        "slots": "18",
        "status": "OPN",
        "streetName": "Marina",
        "streetNumber": "199",
        "type": "BIKE",
        "updateTime": "01/01/19 00:05:13"
    },
    {
        "altitude": "42",
        "bikes": "4",
        "id": "25",
        "latitude": "41.395179",
        "longitude": "2.168294",
        "nearbyStations": "15, 123, 362, 413",
        "slots": "15",
        "status": "OPN",
        "streetName": "Bruc",
        "streetNumber": "102",
        "type": "BIKE",
        "updateTime": "01/01/19 00:05:13"
    },
    {
        "altitude": "28",
        "bikes": "10",
        "id": "26",
        "latitude": "41.407035",
        "longitude": "2.181981",
        "nearbyStations": "120, 121, 177, 371",
        "slots": "8",
        "status": "OPN",
        "streetName": "Dos Maig",
        "streetNumber": "230",
        "type": "BIKE",
        "updateTime": "01/01/19 00:05:13"
    },
    {
        "altitude": "49",
        "bikes": "7",
        "id": "27",
        "latitude": "41.396897",
        "longitude": "2.164373",
        "nearbyStations": "123, 189, 224, 374",
        "slots": "14",
        "status": "OPN",
        "streetName": "Provença",
        "streetNumber": "322",
        "type": "BIKE",
        "updateTime": "01/01/19 00:05:13"
    },
    {
        "altitude": "45",
        "bikes": "1",
        "id": "28",
        "latitude": "41.405422",
        "longitude": "2.17064",
        "nearbyStations": "18, 20, 122, 277",
        "slots": "22",
        "status": "OPN",
        "streetName": "Sardenya",
        "streetNumber": "362",
        "type": "BIKE",
        "updateTime": "01/01/19 00:05:13"
    },
    {
        "altitude": "50",
        "bikes": "5",
        "id": "29",
        "latitude": "41.401132",
        "longitude": "2.170028",
        "nearbyStations": "19, 224, 360, 370",
        "slots": "14",
        "status": "OPN",
        "streetName": "Provença",
        "streetNumber": "388",
        "type": "BIKE",
        "updateTime": "01/01/19 00:05:13"
    },
    {
        "altitude": "28",
        "bikes": "2",
        "id": "30",
        "latitude": "41.402046",
        "longitude": "2.182286",
        "nearbyStations": "24, 218, 369, 371",
        "slots": "14",
        "status": "CLS",
        "streetName": "Diagonal",
        "streetNumber": "231",
        "type": "BIKE",
        "updateTime": "01/01/19 00:05:13"
    },
    {
        "altitude": "1",
        "bikes": "13",
        "id": "31",
        "latitude": "41.37481",
        "longitude": "2.18895",
        "nearbyStations": "33, 39, 41, 124",
        "slots": "4",
        "status": "OPN",
        "streetName": "Plaça del Mar",
        "streetNumber": "72",
        "type": "BIKE",
        "updateTime": "01/01/19 00:05:13"
    },
    {
        "altitude": "1",
        "bikes": "3",
        "id": "32",
        "latitude": "41.373698",
        "longitude": "2.188927",
        "nearbyStations": "31, 33, 124, 400",
        "slots": "21",
        "status": "OPN",
        "streetName": "Plaça del Mar",
        "streetNumber": "1",
        "type": "BIKE",
        "updateTime": "01/01/19 00:05:13"
    },
    {
        "altitude": "1",
        "bikes": "20",
        "id": "33",
        "latitude": "41.376862",
        "longitude": "2.190773",
        "nearbyStations": "31, 41, 124, 424",
        "slots": "0",
        "status": "OPN",
        "streetName": "Pontevedra",
        "streetNumber": "58B",
        "type": "BIKE",
        "updateTime": "01/01/19 00:05:13"
    },
    {
        "altitude": "16",
        "bikes": "5",
        "id": "34",
        "latitude": "41.387074",
        "longitude": "2.175247",
        "nearbyStations": "36, 105, 359, 380",
        "slots": "11",
        "status": "OPN",
        "streetName": "Sant Pere Més Alt",
        "streetNumber": "4",
        "type": "BIKE",
        "updateTime": "01/01/19 00:05:13"
    },
    {
        "altitude": "1",
        "bikes": "27",
        "id": "35",
        "latitude": "41.413592",
        "longitude": "2.221153",
        "nearbyStations": "157, 158, 159, 160",
        "slots": "0",
        "status": "OPN",
        "streetName": "Sant Ramon de Penyafort",
        "streetNumber": "1",
        "type": "BIKE",
        "updateTime": "01/01/19 00:05:13"
    },
    {
        "altitude": "16",
        "bikes": "13",
        "id": "36",
        "latitude": "41.385151",
        "longitude": "2.176804",
        "nearbyStations": "34, 35, 53, 358, 380",
        "slots": "7",
        "status": "OPN",
        "streetName": "Catedral",
        "streetNumber": "6",
        "type": "BIKE",
        "updateTime": "01/01/19 00:05:13"
    },
    {
        "altitude": "5",
        "bikes": "23",
        "id": "37",
        "latitude": "41.381226",
        "longitude": "2.181888",
        "nearbyStations": "38, 115, 126, 401",
        "slots": "1",
        "status": "OPN",
        "streetName": "Pl. Antonio López",
        "streetNumber": "",
        "type": "BIKE",
        "updateTime": "01/01/19 00:05:13"
    },
    {
        "altitude": "1",
        "bikes": "18",
        "id": "38",
        "latitude": "41.381129",
        "longitude": "2.186397",
        "nearbyStations": "39, 40, 124, 126",
        "slots": "2",
        "status": "OPN",
        "streetName": "Pl. Pau Vila",
        "streetNumber": "",
        "type": "BIKE",
        "updateTime": "01/01/19 00:05:13"
    },
    {
        "altitude": "1",
        "bikes": "21",
        "id": "39",
        "latitude": "41.381046",
        "longitude": "2.186576",
        "nearbyStations": "38, 40, 124, 126",
        "slots": "0",
        "status": "OPN",
        "streetName": "Pl. Pau Vila",
        "streetNumber": "",
        "type": "BIKE",
        "updateTime": "01/01/19 00:05:13"
    },
    {
        "altitude": "1",
        "bikes": "15",
        "id": "40",
        "latitude": "41.382335",
        "longitude": "2.187093",
        "nearbyStations": "37, 38, 116, 402",
        "slots": "2",
        "status": "OPN",
        "streetName": "Doctor Aiguader",
        "streetNumber": "2",
        "type": "BIKE",
        "updateTime": "01/01/19 00:05:13"
    },
    {
        "altitude": "1",
        "bikes": "6",
        "id": "41",
        "latitude": "41.379326",
        "longitude": "2.189906",
        "nearbyStations": "31, 39, 124, 424",
        "slots": "14",
        "status": "OPN",
        "streetName": "Pl. Poeta Boscà/Atlàntida",
        "streetNumber": "",
        "type": "BIKE",
        "updateTime": "01/01/19 00:05:13"
    },
    {
        "altitude": "18",
        "bikes": "0",
        "id": "42",
        "latitude": "41.404511",
        "longitude": "2.189881",
        "nearbyStations": "44, 133, 286",
        "slots": "23",
        "status": "OPN",
        "streetName": "Ciutat de Granada",
        "streetNumber": "168",
        "type": "BIKE",
        "updateTime": "01/01/19 00:05:13"
    },
    {
        "altitude": "18",
        "bikes": "0",
        "id": "44",
        "latitude": "41.402285",
        "longitude": "2.187111",
        "nearbyStations": "30, 42, 286",
        "slots": "15",
        "status": "OPN",
        "streetName": "Av Meridiana",
        "streetNumber": "66",
        "type": "BIKE",
        "updateTime": "01/01/19 00:05:13"
    },
    {
        "altitude": "18",
        "bikes": "15",
        "id": "45",
        "latitude": "41.391429",
        "longitude": "2.189312",
        "nearbyStations": "47, 118, 392, 409",
        "slots": "1",
        "status": "OPN",
        "streetName": "Sardenya",
        "streetNumber": "66",
        "type": "BIKE",
        "updateTime": "01/01/19 00:05:13"
    },
    {
        "altitude": "1",
        "bikes": "27",
        "id": "46",
        "latitude": "41.388359",
        "longitude": "2.193004",
        "nearbyStations": "47, 69, 392, 407",
        "slots": "2",
        "status": "OPN",
        "streetName": "Ramon trias Fargas",
        "streetNumber": "19",
        "type": "BIKE",
        "updateTime": "01/01/19 00:05:13"
    },
    {
        "altitude": "1",
        "bikes": "35",
        "id": "47",
        "latitude": "41.389831",
        "longitude": "2.191147",
        "nearbyStations": "13, 46, 392, 407",
        "slots": "0",
        "status": "OPN",
        "streetName": "Ramon Trias Fargas",
        "streetNumber": "23",
        "type": "BIKE",
        "updateTime": "01/01/19 00:05:13"
    },
    {
        "altitude": "18",
        "bikes": "10",
        "id": "48",
        "latitude": "41.396085",
        "longitude": "2.187073",
        "nearbyStations": "16, 118, 149, 211",
        "slots": "7",
        "status": "OPN",
        "streetName": "Meridiana",
        "streetNumber": "40",
        "type": "BIKE",
        "updateTime": "01/01/19 00:05:13"
    },
    {
        "altitude": "1",
        "bikes": "12",
        "id": "49",
        "latitude": "41.39106",
        "longitude": "2.196457",
        "nearbyStations": "46, 117, 163, 396",
        "slots": "3",
        "status": "OPN",
        "streetName": "Rosa Sensat en front",
        "streetNumber": "20",
        "type": "BIKE",
        "updateTime": "01/01/19 00:05:13"
    },
    {
        "altitude": "1",
        "bikes": "25",
        "id": "50",
        "latitude": "41375",
        "longitude": "2.17035",
        "nearbyStations": "114, 187, 232, 233",
        "slots": "0",
        "status": "OPN",
        "streetName": "Av. Paral.lel",
        "streetNumber": "54",
        "type": "BIKE",
        "updateTime": "01/01/19 00:05:13"
    },
    {
        "altitude": "32",
        "bikes": "0",
        "id": "51",
        "latitude": "41.384054",
        "longitude": "2.169019",
        "nearbyStations": "55, 58, 59, 63",
        "slots": "17",
        "status": "OPN",
        "streetName": "Pl. Vicenç Martorell",
        "streetNumber": "",
        "type": "BIKE",
        "updateTime": "01/01/19 00:05:13"
    },
    {
        "altitude": "32",
        "bikes": "11",
        "id": "53",
        "latitude": "41.385227",
        "longitude": "2.173878",
        "nearbyStations": "34, 36, 380, 395",
        "slots": "10",
        "status": "OPN",
        "streetName": "Pl. Carles Pi i Sunyer",
        "streetNumber": "",
        "type": "BIKE",
        "updateTime": "01/01/19 00:05:13"
    },
    {
        "altitude": "24",
        "bikes": "14",
        "id": "54",
        "latitude": "41.377635",
        "longitude": "2.170586",
        "nearbyStations": "114, 187, 388, 415",
        "slots": "0",
        "status": "OPN",
        "streetName": "Sant Oleguer",
        "streetNumber": "2",
        "type": "BIKE",
        "updateTime": "01/01/19 00:05:13"
    },
    {
        "altitude": "24",
        "bikes": "15",
        "id": "55",
        "latitude": "41.381154",
        "longitude": "2.173497",
        "nearbyStations": "54, 378, 379, 395",
        "slots": "0",
        "status": "OPN",
        "streetName": "La Rambla",
        "streetNumber": "80",
        "type": "BIKE",
        "updateTime": "01/01/19 00:05:13"
    },
    {
        "altitude": "5",
        "bikes": "25",
        "id": "56",
        "latitude": "41.377011",
        "longitude": "2.175834",
        "nearbyStations": "54, 57, 378, 425",
        "slots": "1",
        "status": "OPN",
        "streetName": "Portal de Santa Madrona",
        "streetNumber": "2",
        "type": "BIKE",
        "updateTime": "01/01/19 00:05:13"
    },
    {
        "altitude": "5",
        "bikes": "25",
        "id": "57",
        "latitude": "41.376758",
        "longitude": "2.177093",
        "nearbyStations": "56, 114, 361, 378",
        "slots": "0",
        "status": "OPN",
        "streetName": "La Rambla",
        "streetNumber": "2",
        "type": "BIKE",
        "updateTime": "01/01/19 00:05:13"
    },
    {
        "altitude": "24",
        "bikes": "13",
        "id": "58",
        "latitude": "41.382822",
        "longitude": "2.167154",
        "nearbyStations": "51, 59, 381, 388",
        "slots": "6",
        "status": "OPN",
        "streetName": "Plaça dels Àngels",
        "streetNumber": "1",
        "type": "BIKE",
        "updateTime": "01/01/19 00:05:13"
    },
    {
        "altitude": "24",
        "bikes": "17",
        "id": "59",
        "latitude": "41.382781",
        "longitude": "2.167203",
        "nearbyStations": "51, 58, 381, 388",
        "slots": "0",
        "status": "OPN",
        "streetName": "Plaça dels Àngels",
        "streetNumber": "2",
        "type": "BIKE",
        "updateTime": "01/01/19 00:05:13"
    },
    {
        "altitude": "41",
        "bikes": "0",
        "id": "60",
        "latitude": "41.390349",
        "longitude": "2.16424",
        "nearbyStations": "61, 66, 80, 364",
        "slots": "27",
        "status": "OPN",
        "streetName": "Rambla Catalunya",
        "streetNumber": "47",
        "type": "BIKE",
        "updateTime": "01/01/19 00:05:13"
    },
    {
        "altitude": "41",
        "bikes": "8",
        "id": "61",
        "latitude": "41.390143",
        "longitude": "2.164946",
        "nearbyStations": "60, 80, 287, 364",
        "slots": "19",
        "status": "OPN",
        "streetName": "Rambla Catalunya",
        "streetNumber": "42",
        "type": "BIKE",
        "updateTime": "01/01/19 00:05:13"
    },
    {
        "altitude": "32",
        "bikes": "15",
        "id": "62",
        "latitude": "41.387142",
        "longitude": "2.168858",
        "nearbyStations": "63, 64, 65, 395",
        "slots": "6",
        "status": "OPN",
        "streetName": "Pl. Catalunya",
        "streetNumber": "5",
        "type": "BIKE",
        "updateTime": "01/01/19 00:05:13"
    },
    {
        "altitude": "32",
        "bikes": "20",
        "id": "63",
        "latitude": "41.386439",
        "longitude": "2.169417",
        "nearbyStations": "62, 64, 65, 395",
        "slots": "7",
        "status": "OPN",
        "streetName": "Pl. Catalunya",
        "streetNumber": "7",
        "type": "BIKE",
        "updateTime": "01/01/19 00:05:13"
    },
    {
        "altitude": "32",
        "bikes": "10",
        "id": "64",
        "latitude": "41.387469",
        "longitude": "2.169048",
        "nearbyStations": "62, 63, 65, 395",
        "slots": "11",
        "status": "OPN",
        "streetName": "Pl. Catalunya",
        "streetNumber": "",
        "type": "BIKE",
        "updateTime": "01/01/19 00:05:13"
    },
    {
        "altitude": "32",
        "bikes": "12",
        "id": "65",
        "latitude": "41.387678",
        "longitude": "2.169587",
        "nearbyStations": "62, 63, 64, 395",
        "slots": "7",
        "status": "OPN",
        "streetName": "Pl. Catalunya",
        "streetNumber": "",
        "type": "BIKE",
        "updateTime": "01/01/19 00:05:13"
    },
    {
        "altitude": "32",
        "bikes": "6",
        "id": "66",
        "latitude": "41.389097",
        "longitude": "2.167933",
        "nearbyStations": "61, 64, 79, 287",
        "slots": "8",
        "status": "OPN",
        "streetName": "Gran Via",
        "streetNumber": "609",
        "type": "BIKE",
        "updateTime": "01/01/19 00:05:13"
    },
    {
        "altitude": "51",
        "bikes": "3",
        "id": "67",
        "latitude": "41.385012",
        "longitude": "2.145843",
        "nearbyStations": "75, 87, 89, 365",
        "slots": "17",
        "status": "OPN",
        "streetName": "Rocafort",
        "streetNumber": "214",
        "type": "BIKE",
        "updateTime": "01/01/19 00:05:13"
    },
    {
        "altitude": "59",
        "bikes": "3",
        "id": "68",
        "latitude": "41.395364",
        "longitude": "2.157356",
        "nearbyStations": "72, 73, 92, 374",
        "slots": "23",
        "status": "OPN",
        "streetName": "Rambla Catalunya",
        "streetNumber": "133",
        "type": "BIKE",
        "updateTime": "01/01/19 00:05:13"
    },
    {
        "altitude": "1",
        "bikes": "22",
        "id": "69",
        "latitude": "41.386814",
        "longitude": "2.195689",
        "nearbyStations": "12, 13, 125, 397",
        "slots": "11",
        "status": "OPN",
        "streetName": "Avda. Litoral",
        "streetNumber": "",
        "type": "BIKE",
        "updateTime": "01/01/19 00:05:13"
    },
    {
        "altitude": "35",
        "bikes": "17",
        "id": "70",
        "latitude": "41.380347",
        "longitude": "2.160695",
        "nearbyStations": "71, 91, 113, 261",
        "slots": "0",
        "status": "OPN",
        "streetName": "Comte Urgell",
        "streetNumber": "23",
        "type": "BIKE",
        "updateTime": "01/01/19 00:05:13"
    },
    {
        "altitude": "35",
        "bikes": "13",
        "id": "71",
        "latitude": "41.381931",
        "longitude": "2.162969",
        "nearbyStations": "70, 78, 113, 148",
        "slots": "8",
        "status": "OPN",
        "streetName": "Floridablanca",
        "streetNumber": "145",
        "type": "BIKE",
        "updateTime": "01/01/19 00:05:13"
    },
    {
        "altitude": "55",
        "bikes": "1",
        "id": "72",
        "latitude": "41.392716",
        "longitude": "2.158811",
        "nearbyStations": "68, 73, 92, 374",
        "slots": "25",
        "status": "OPN",
        "streetName": "Provença",
        "streetNumber": "215",
        "type": "BIKE",
        "updateTime": "01/01/19 00:05:13"
    },
    {
        "altitude": "59",
        "bikes": "6",
        "id": "73",
        "latitude": "41.392278",
        "longitude": "2.156183",
        "nearbyStations": "68, 72, 76, 92",
        "slots": "13",
        "status": "OPN",
        "streetName": "Enric Granados",
        "streetNumber": "93",
        "type": "BIKE",
        "updateTime": "01/01/19 00:05:13"
    },
    {
        "altitude": "51",
        "bikes": "0",
        "id": "74",
        "latitude": "41.390062",
        "longitude": "2.143272",
        "nearbyStations": "101, 102, 109, 366",
        "slots": "20",
        "status": "OPN",
        "streetName": "Josep Tarradellas",
        "streetNumber": "133",
        "type": "BIKE",
        "updateTime": "01/01/19 00:05:13"
    },
    {
        "altitude": "51",
        "bikes": "1",
        "id": "75",
        "latitude": "41.385081",
        "longitude": "2.142868",
        "nearbyStations": "67, 99, 197, 365",
        "slots": "20",
        "status": "OPN",
        "streetName": "Josep Tarradellas",
        "streetNumber": "58",
        "type": "BIKE",
        "updateTime": "01/01/19 00:05:13"
    },
    {
        "altitude": "45",
        "bikes": "0",
        "id": "76",
        "latitude": "41.391751",
        "longitude": "2.153123",
        "nearbyStations": "72, 73, 88, 90",
        "slots": "33",
        "status": "OPN",
        "streetName": "Còrsega",
        "streetNumber": "216",
        "type": "BIKE",
        "updateTime": "01/01/19 00:05:13"
    },
    {
        "altitude": "41",
        "bikes": "9",
        "id": "78",
        "latitude": "41.385598",
        "longitude": "2.16338",
        "nearbyStations": "71, 79, 209, 406",
        "slots": "17",
        "status": "OPN",
        "streetName": "Pl. Universitat",
        "streetNumber": "",
        "type": "BIKE",
        "updateTime": "01/01/19 00:05:13"
    },
    {
        "altitude": "41",
        "bikes": "11",
        "id": "79",
        "latitude": "41.38547",
        "longitude": "2.16333",
        "nearbyStations": "78, 209, 287, 406",
        "slots": "12",
        "status": "OPN",
        "streetName": "Pl. Universitat",
        "streetNumber": "",
        "type": "BIKE",
        "updateTime": "01/01/19 00:05:13"
    },
    {
        "altitude": "41",
        "bikes": "5",
        "id": "80",
        "latitude": "41.389687",
        "longitude": "2.159999",
        "nearbyStations": "60, 209, 385, 394",
        "slots": "14",
        "status": "OPN",
        "streetName": "Enric Granados",
        "streetNumber": "35",
        "type": "BIKE",
        "updateTime": "01/01/19 00:05:13"
    },
    {
        "altitude": "44",
        "bikes": "9",
        "id": "81",
        "latitude": "41.378915",
        "longitude": "2.149174",
        "nearbyStations": "82, 95, 97, 384",
        "slots": "12",
        "status": "OPN",
        "streetName": "Vilamarí davant",
        "streetNumber": "61",
        "type": "BIKE",
        "updateTime": "01/01/19 00:05:13"
    },
    {
        "altitude": "40",
        "bikes": "33",
        "id": "82",
        "latitude": "41.379016",
        "longitude": "2.153799",
        "nearbyStations": "67, 81, 111, 112",
        "slots": "0",
        "status": "OPN",
        "streetName": "Rocafort",
        "streetNumber": "72",
        "type": "BIKE",
        "updateTime": "01/01/19 00:05:13"
    },
    {
        "altitude": "45",
        "bikes": "11",
        "id": "83",
        "latitude": "41.384075",
        "longitude": "2.153654",
        "nearbyStations": "87, 89, 110, 111",
        "slots": "16",
        "status": "OPN",
        "streetName": "Comte Borrell",
        "streetNumber": "177",
        "type": "BIKE",
        "updateTime": "01/01/19 00:05:13"
    },
    {
        "altitude": "35",
        "bikes": "14",
        "id": "84",
        "latitude": "41.383047",
        "longitude": "2.157033",
        "nearbyStations": "78, 91, 110, 209",
        "slots": "4",
        "status": "OPN",
        "streetName": "Comte d'Urgell",
        "streetNumber": "75 B",
        "type": "BIKE",
        "updateTime": "01/01/19 00:05:13"
    },
    {
        "altitude": "35",
        "bikes": "22",
        "id": "85",
        "latitude": "41.375076",
        "longitude": "2.159046",
        "nearbyStations": "112, 129, 235, 236",
        "slots": "0",
        "status": "OPN",
        "streetName": "Paral·lel",
        "streetNumber": "146",
        "type": "BIKE",
        "updateTime": "01/01/19 00:05:13"
    },
    {
        "altitude": "35",
        "bikes": "19",
        "id": "86",
        "latitude": "41.37544",
        "longitude": "2163",
        "nearbyStations": "85, 187, 235, 373",
        "slots": "7",
        "status": "OPN",
        "streetName": "Viladomat",
        "streetNumber": "2",
        "type": "BIKE",
        "updateTime": "01/01/19 00:05:13"
    },
    {
        "altitude": "44",
        "bikes": "4",
        "id": "87",
        "latitude": "41.383156",
        "longitude": "2.148506",
        "nearbyStations": "67, 111, 191, 384",
        "slots": "16",
        "status": "OPN",
        "streetName": "Mallorca",
        "streetNumber": "41",
        "type": "BIKE",
        "updateTime": "01/01/19 00:05:13"
    },
    {
        "altitude": "59",
        "bikes": "0",
        "id": "88",
        "latitude": "41.393547",
        "longitude": "2.150764",
        "nearbyStations": "76, 109, 220, 350",
        "slots": "20",
        "status": "OPN",
        "streetName": "Londres",
        "streetNumber": "101",
        "type": "BIKE",
        "updateTime": "01/01/19 00:05:13"
    },
    {
        "altitude": "45",
        "bikes": "0",
        "id": "89",
        "latitude": "41.38824",
        "longitude": "2.150252",
        "nearbyStations": "76, 90, 110, 365",
        "slots": "32",
        "status": "OPN",
        "streetName": "Rosselló",
        "streetNumber": "101",
        "type": "BIKE",
        "updateTime": "01/01/19 00:05:13"
    },
    {
        "altitude": "45",
        "bikes": "0",
        "id": "90",
        "latitude": "41.38834",
        "longitude": "2.150825",
        "nearbyStations": "76, 89, 365, 385",
        "slots": "17",
        "status": "OPN",
        "streetName": "Rosselló",
        "streetNumber": "108",
        "type": "BIKE",
        "updateTime": "01/01/19 00:05:13"
    },
    {
        "altitude": "35",
        "bikes": "24",
        "id": "91",
        "latitude": "41.380452",
        "longitude": "2.158403",
        "nearbyStations": "70, 112, 113, 261",
        "slots": "6",
        "status": "OPN",
        "streetName": "Comte Borrell",
        "streetNumber": "119",
        "type": "BIKE",
        "updateTime": "01/01/19 00:05:13"
    },
    {
        "altitude": "50",
        "bikes": "0",
        "id": "92",
        "latitude": "41.39386",
        "longitude": "2.160237",
        "nearbyStations": "72, 73, 364, 374",
        "slots": "13",
        "status": "OPN",
        "streetName": "Provença",
        "streetNumber": "241",
        "type": "BIKE",
        "updateTime": "01/01/19 00:05:13"
    },
    {
        "altitude": "40",
        "bikes": "10",
        "id": "93",
        "latitude": "41.375454",
        "longitude": "2.149786",
        "nearbyStations": "94, 95, 96, 420",
        "slots": "12",
        "status": "OPN",
        "streetName": "Gran Via",
        "streetNumber": "375",
        "type": "BIKE",
        "updateTime": "01/01/19 00:05:13"
    },
    {
        "altitude": "40",
        "bikes": "18",
        "id": "94",
        "latitude": "41.375619",
        "longitude": "2.149889",
        "nearbyStations": "93, 95, 96, 420",
        "slots": "5",
        "status": "OPN",
        "streetName": "Gran Via",
        "streetNumber": "375",
        "type": "BIKE",
        "updateTime": "01/01/19 00:05:13"
    },
    {
        "altitude": "44",
        "bikes": "27",
        "id": "95",
        "latitude": "41.376428",
        "longitude": "2.147734",
        "nearbyStations": "93, 96, 97, 186",
        "slots": "4",
        "status": "OPN",
        "streetName": "Tarragona",
        "streetNumber": "103",
        "type": "BIKE",
        "updateTime": "01/01/19 00:05:13"
    },
    {
        "altitude": "61",
        "bikes": "8",
        "id": "96",
        "latitude": "41.374152",
        "longitude": "2.148154",
        "nearbyStations": "93, 95, 186, 420",
        "slots": "11",
        "status": "OPN",
        "streetName": "Gran Via",
        "streetNumber": "361",
        "type": "BIKE",
        "updateTime": "01/01/19 00:05:13"
    },
    {
        "altitude": "44",
        "bikes": "18",
        "id": "97",
        "latitude": "41.378124",
        "longitude": "2.145389",
        "nearbyStations": "81, 95, 100, 186",
        "slots": "2",
        "status": "OPN",
        "streetName": "Tarragona",
        "streetNumber": "141",
        "type": "BIKE",
        "updateTime": "01/01/19 00:05:13"
    },
    {
        "altitude": "44",
        "bikes": "16",
        "id": "98",
        "latitude": "41.380499",
        "longitude": "2.141153",
        "nearbyStations": "75, 99, 100, 421",
        "slots": "5",
        "status": "OPN",
        "streetName": "Viriat",
        "streetNumber": "45",
        "type": "BIKE",
        "updateTime": "01/01/19 00:05:13"
    },
    {
        "altitude": "44",
        "bikes": "15",
        "id": "99",
        "latitude": "41.380632",
        "longitude": "2.141548",
        "nearbyStations": "98, 100, 195, 421",
        "slots": "2",
        "status": "OPN",
        "streetName": "Viriat",
        "streetNumber": "53",
        "type": "BIKE",
        "updateTime": "01/01/19 00:05:13"
    },
    {
        "altitude": "44",
        "bikes": "10",
        "id": "100",
        "latitude": "41.379135",
        "longitude": "2.14409",
        "nearbyStations": "97, 98, 99, 384",
        "slots": "9",
        "status": "OPN",
        "streetName": "Tarragona",
        "streetNumber": "159",
        "type": "BIKE",
        "updateTime": "01/01/19 00:05:13"
    },
    {
        "altitude": "69",
        "bikes": "9",
        "id": "101",
        "latitude": "41.39243",
        "longitude": "2.14321",
        "nearbyStations": "74, 102, 319, 366",
        "slots": "17",
        "status": "OPN",
        "streetName": "Av. Diagonal",
        "streetNumber": "602",
        "type": "BIKE",
        "updateTime": "01/01/19 00:05:13"
    },
    {
        "altitude": "69",
        "bikes": "18",
        "id": "102",
        "latitude": "41.39218",
        "longitude": "2.14213",
        "nearbyStations": "74, 102, 319, 366",
        "slots": "6",
        "status": "OPN",
        "streetName": "Av. Diagonal",
        "streetNumber": "612",
        "type": "BIKE",
        "updateTime": "01/01/19 00:05:13"
    },
    {
        "altitude": "17",
        "bikes": "12",
        "id": "103",
        "latitude": "41.409856",
        "longitude": "2.188217",
        "nearbyStations": "26, 104, 127, 132",
        "slots": "9",
        "status": "OPN",
        "streetName": "Aragó",
        "streetNumber": "629",
        "type": "BIKE",
        "updateTime": "01/01/19 00:05:13"
    },
    {
        "altitude": "17",
        "bikes": "12",
        "id": "104",
        "latitude": "41.410821",
        "longitude": "2.187365",
        "nearbyStations": "26, 103, 127, 177",
        "slots": "12",
        "status": "OPN",
        "streetName": "C/València",
        "streetNumber": "621",
        "type": "BIKE",
        "updateTime": "01/01/19 00:05:13"
    },
    {
        "altitude": "32",
        "bikes": "8",
        "id": "105",
        "latitude": "41.389197",
        "longitude": "2.173555",
        "nearbyStations": "65, 359, 363, 412",
        "slots": "11",
        "status": "OPN",
        "streetName": "PL. Urquinaona",
        "streetNumber": "9",
        "type": "BIKE",
        "updateTime": "01/01/19 00:05:13"
    },
    {
        "altitude": "59",
        "bikes": "16",
        "id": "106",
        "latitude": "41.405587",
        "longitude": "2.162317",
        "nearbyStations": "108, 122, 226, 231",
        "slots": "5",
        "status": "OPN",
        "streetName": "Pl. Joanic",
        "streetNumber": "s/n",
        "type": "BIKE",
        "updateTime": "01/01/19 00:05:13"
    },
    {
        "altitude": "59",
        "bikes": "0",
        "id": "107",
        "latitude": "41.398373",
        "longitude": "2.153154",
        "nearbyStations": "68, 219, 220, 223",
        "slots": "21",
        "status": "OPN",
        "streetName": "Travessera de Gracia",
        "streetNumber": "92",
        "type": "BIKE",
        "updateTime": "01/01/19 00:05:13"
    },
    {
        "altitude": "59",
        "bikes": "2",
        "id": "108",
        "latitude": "41.402314",
        "longitude": "2.164961",
        "nearbyStations": "29, 122, 224, 226",
        "slots": "17",
        "status": "OPN",
        "streetName": "Indústria",
        "streetNumber": "10",
        "type": "BIKE",
        "updateTime": "01/01/19 00:05:13"
    },
    {
        "altitude": "51",
        "bikes": "0",
        "id": "109",
        "latitude": "41.390981",
        "longitude": "2.14737",
        "nearbyStations": "89, 101, 350, 365",
        "slots": "21",
        "status": "OPN",
        "streetName": "C/ Londres",
        "streetNumber": "53",
        "type": "BIKE",
        "updateTime": "01/01/19 00:05:13"
    },
    {
        "altitude": "43",
        "bikes": "8",
        "id": "110",
        "latitude": "41.385377",
        "longitude": "2.154878",
        "nearbyStations": "83, 84, 209, 385",
        "slots": "11",
        "status": "OPN",
        "streetName": "Avda. Roma",
        "streetNumber": "136",
        "type": "BIKE",
        "updateTime": "01/01/19 00:05:13"
    },
    {
        "altitude": "41",
        "bikes": "14",
        "id": "111",
        "latitude": "41.381231",
        "longitude": "2.152755",
        "nearbyStations": "81, 82, 83, 262",
        "slots": "7",
        "status": "OPN",
        "streetName": "Calabria",
        "streetNumber": "137",
        "type": "BIKE",
        "updateTime": "01/01/19 00:05:13"
    },
    {
        "altitude": "40",
        "bikes": "17",
        "id": "112",
        "latitude": "41.377644",
        "longitude": "2.15725",
        "nearbyStations": "82, 91, 94, 113",
        "slots": "3",
        "status": "OPN",
        "streetName": "Floridablanca",
        "streetNumber": "49",
        "type": "BIKE",
        "updateTime": "01/01/19 00:05:13"
    },
    {
        "altitude": "30",
        "bikes": "24",
        "id": "113",
        "latitude": "41.377464",
        "longitude": "2.164725",
        "nearbyStations": "70, 112, 129, 427",
        "slots": "2",
        "status": "OPN",
        "streetName": "Sant Pau",
        "streetNumber": "51",
        "type": "BIKE",
        "updateTime": "01/01/19 00:05:13"
    },
    {
        "altitude": "24",
        "bikes": "19",
        "id": "114",
        "latitude": "41.376801",
        "longitude": "2.173039",
        "nearbyStations": "50, 54, 56, 425",
        "slots": "0",
        "status": "OPN",
        "streetName": "Pl. Jean Genet",
        "streetNumber": "1",
        "type": "BIKE",
        "updateTime": "01/01/19 00:05:13"
    },
    {
        "altitude": "1",
        "bikes": "17",
        "id": "115",
        "latitude": "41.38377",
        "longitude": "2.18424",
        "nearbyStations": "14, 37, 401",
        "slots": "0",
        "status": "OPN",
        "streetName": "Marqués d'Argentera",
        "streetNumber": "3",
        "type": "BIKE",
        "updateTime": "01/01/19 00:05:13"
    },
    {
        "altitude": "11",
        "bikes": "24",
        "id": "116",
        "latitude": "41.383718",
        "longitude": "2.191414",
        "nearbyStations": "11, 13, 38, 39",
        "slots": "2",
        "status": "OPN",
        "streetName": "Salvat Papasseit",
        "streetNumber": "72",
        "type": "BIKE",
        "updateTime": "01/01/19 00:05:13"
    },
    {
        "altitude": "1",
        "bikes": "20",
        "id": "117",
        "latitude": "41.390666",
        "longitude": "2.197024",
        "nearbyStations": "46, 49, 163, 396",
        "slots": "0",
        "status": "OPN",
        "streetName": "Rosa Sensat",
        "streetNumber": "12",
        "type": "BIKE",
        "updateTime": "01/01/19 00:05:13"
    },
    {
        "altitude": "18",
        "bikes": "22",
        "id": "118",
        "latitude": "41.392212",
        "longitude": "2.187847",
        "nearbyStations": "7, 8, 45, 149",
        "slots": "3",
        "status": "OPN",
        "streetName": "Sardenya",
        "streetNumber": "3",
        "type": "BIKE",
        "updateTime": "01/01/19 00:05:13"
    },
    {
        "altitude": "21",
        "bikes": "17",
        "id": "119",
        "latitude": "41.396684",
        "longitude": "2.182447",
        "nearbyStations": "3, 372, 387, 426",
        "slots": "3",
        "status": "OPN",
        "streetName": "Sardenya",
        "streetNumber": "178",
        "type": "BIKE",
        "updateTime": "01/01/19 00:05:13"
    },
    {
        "altitude": "28",
        "bikes": "2",
        "id": "120",
        "latitude": "41.404666",
        "longitude": "2.176515",
        "nearbyStations": "18, 22, 121, 370",
        "slots": "18",
        "status": "OPN",
        "streetName": "Lepant",
        "streetNumber": "278",
        "type": "BIKE",
        "updateTime": "01/01/19 00:05:13"
    },
    {
        "altitude": "28",
        "bikes": "0",
        "id": "121",
        "latitude": "41.406293",
        "longitude": "2.178689",
        "nearbyStations": "18, 26, 120, 371",
        "slots": "20",
        "status": "OPN",
        "streetName": "Castillejos",
        "streetNumber": "258",
        "type": "BIKE",
        "updateTime": "01/01/19 00:05:13"
    },
    {
        "altitude": "59",
        "bikes": "2",
        "id": "122",
        "latitude": "41.405435",
        "longitude": "2.16624",
        "nearbyStations": "19, 106, 108, 277",
        "slots": "18",
        "status": "OPN",
        "streetName": "Nàpols",
        "streetNumber": "344",
        "type": "BIKE",
        "updateTime": "01/01/19 00:05:13"
    },
    {
        "altitude": "45",
        "bikes": "1",
        "id": "123",
        "latitude": "41.398013",
        "longitude": "2.166978",
        "nearbyStations": "27, 189, 224, 362",
        "slots": "18",
        "status": "OPN",
        "streetName": "Girona",
        "streetNumber": "142",
        "type": "BIKE",
        "updateTime": "01/01/19 00:05:13"
    },
    {
        "altitude": "5",
        "bikes": "12",
        "id": "124",
        "latitude": "41.370297",
        "longitude": "2.187808",
        "nearbyStations": "31, 32, 41, 400",
        "slots": "12",
        "status": "OPN",
        "streetName": "Passeig Joan de Borbó",
        "streetNumber": "s/n",
        "type": "BIKE",
        "updateTime": "01/01/19 00:05:13"
    },
    {
        "altitude": "1",
        "bikes": "4",
        "id": "125",
        "latitude": "41.384426",
        "longitude": "2.195595",
        "nearbyStations": "12, 13, 69, 398",
        "slots": "16",
        "status": "OPN",
        "streetName": "Passeig Maritim",
        "streetNumber": "31",
        "type": "BIKE",
        "updateTime": "01/01/19 00:05:13"
    },
    {
        "altitude": "5",
        "bikes": "20",
        "id": "126",
        "latitude": "41.380778",
        "longitude": "2.182581",
        "nearbyStations": "37, 115, 377, 402",
        "slots": "0",
        "status": "OPN",
        "streetName": "Passeig de Colom",
        "streetNumber": "",
        "type": "BIKE",
        "updateTime": "01/01/19 00:05:13"
    },
    {
        "altitude": "17",
        "bikes": "19",
        "id": "127",
        "latitude": "41.412322",
        "longitude": "2.19142",
        "nearbyStations": "103, 104, 128, 238",
        "slots": "7",
        "status": "OPN",
        "streetName": "Aragó",
        "streetNumber": "661",
        "type": "BIKE",
        "updateTime": "01/01/19 00:05:13"
    },
    {
        "altitude": "13",
        "bikes": "25",
        "id": "128",
        "latitude": "41.415581",
        "longitude": "2.19581",
        "nearbyStations": "127, 130, 135, 238",
        "slots": "3",
        "status": "OPN",
        "streetName": "Rambla Guipúscoa",
        "streetNumber": "43",
        "type": "BIKE",
        "updateTime": "01/01/19 00:05:13"
    },
    {
        "altitude": "35",
        "bikes": "16",
        "id": "129",
        "latitude": "41.377068",
        "longitude": "2.161269",
        "nearbyStations": "91, 112, 113, 148",
        "slots": "11",
        "status": "OPN",
        "streetName": "Manso",
        "streetNumber": "46",
        "type": "BIKE",
        "updateTime": "01/01/19 00:05:13"
    },
    {
        "altitude": "9",
        "bikes": "21",
        "id": "130",
        "latitude": "41.419905",
        "longitude": "2.201573",
        "nearbyStations": "127, 128, 131, 139",
        "slots": "2",
        "status": "OPN",
        "streetName": "Rambla Guipúscoa",
        "streetNumber": "103",
        "type": "BIKE",
        "updateTime": "01/01/19 00:05:13"
    },
    {
        "altitude": "9",
        "bikes": "25",
        "id": "131",
        "latitude": "41.422808",
        "longitude": "2.206036",
        "nearbyStations": "130, 139, 316, 317",
        "slots": "1",
        "status": "OPN",
        "streetName": "Rambla Guipúscoa",
        "streetNumber": "158",
        "type": "BIKE",
        "updateTime": "01/01/19 00:05:13"
    },
    {
        "altitude": "13",
        "bikes": "17",
        "id": "132",
        "latitude": "41.408439",
        "longitude": "2.192173",
        "nearbyStations": "42, 103, 133, 141",
        "slots": "4",
        "status": "OPN",
        "streetName": "Pl. Valentí Amirall",
        "streetNumber": "",
        "type": "BIKE",
        "updateTime": "01/01/19 00:05:13"
    },
    {
        "altitude": "16",
        "bikes": "7",
        "id": "133",
        "latitude": "41.407307",
        "longitude": "2.192804",
        "nearbyStations": "42, 132, 141",
        "slots": "8",
        "status": "OPN",
        "streetName": "Gran Vía",
        "streetNumber": "902",
        "type": "BIKE",
        "updateTime": "01/01/19 00:05:13"
    },
    {
        "altitude": "10",
        "bikes": "20",
        "id": "134",
        "latitude": "41.411433",
        "longitude": "2.198735",
        "nearbyStations": "135, 136, 141, 145",
        "slots": "1",
        "status": "OPN",
        "streetName": "Bac de Roda",
        "streetNumber": "157",
        "type": "BIKE",
        "updateTime": "01/01/19 00:05:13"
    },
    {
        "altitude": "13",
        "bikes": "15",
        "id": "135",
        "latitude": "41.411908",
        "longitude": "2.197936",
        "nearbyStations": "136, 137, 141",
        "slots": "5",
        "status": "OPN",
        "streetName": "Gran Vía",
        "streetNumber": "981",
        "type": "BIKE",
        "updateTime": "01/01/19 00:05:13"
    },
    {
        "altitude": "9",
        "bikes": "17",
        "id": "136",
        "latitude": "41.414226",
        "longitude": "2.201734",
        "nearbyStations": "137, 138, 146",
        "slots": "8",
        "status": "OPN",
        "streetName": "Gran Vía",
        "streetNumber": "1062",
        "type": "BIKE",
        "updateTime": "01/01/19 00:05:13"
    },
    {
        "altitude": "9",
        "bikes": "4",
        "id": "137",
        "latitude": "41.414758",
        "longitude": "2.201538",
        "nearbyStations": "130, 136, 138, 146",
        "slots": "22",
        "status": "OPN",
        "streetName": "Gran Vía, 1041/ Selva de Mar",
        "streetNumber": "1041",
        "type": "BIKE",
        "updateTime": "01/01/19 00:05:13"
    },
    {
        "altitude": "9",
        "bikes": "13",
        "id": "138",
        "latitude": "41.416966",
        "longitude": "2.205397",
        "nearbyStations": "136, 137, 139, 147",
        "slots": "10",
        "status": "OPN",
        "streetName": "Gran Vía",
        "streetNumber": "1118",
        "type": "BIKE",
        "updateTime": "01/01/19 00:05:13"
    },
    {
        "altitude": "9",
        "bikes": "8",
        "id": "139",
        "latitude": "41.418035",
        "longitude": "2.206023",
        "nearbyStations": "130, 131, 138, 147",
        "slots": "15",
        "status": "OPN",
        "streetName": "Gran Vía",
        "streetNumber": "1131",
        "type": "BIKE",
        "updateTime": "01/01/19 00:05:13"
    },
    {
        "altitude": "41",
        "bikes": "27",
        "id": "140",
        "latitude": "41.38063",
        "longitude": "2.15614",
        "nearbyStations": "82, 91, 111, 262",
        "slots": "0",
        "status": "OPN",
        "streetName": "Viladomat",
        "streetNumber": "122",
        "type": "BIKE",
        "updateTime": "01/01/19 00:05:13"
    },
    {
        "altitude": "13",
        "bikes": "26",
        "id": "141",
        "latitude": "41.40902",
        "longitude": "2.194896",
        "nearbyStations": "42, 132, 133, 135",
        "slots": "4",
        "status": "OPN",
        "streetName": "Gran Via",
        "streetNumber": "940",
        "type": "BIKE",
        "updateTime": "01/01/19 00:05:13"
    },
    {
        "altitude": "16",
        "bikes": "0",
        "id": "142",
        "latitude": "41.400503",
        "longitude": "2.192511",
        "nearbyStations": "42, 44, 143, 211",
        "slots": "30",
        "status": "OPN",
        "streetName": "Sancho de Ávila",
        "streetNumber": "104",
        "type": "BIKE",
        "updateTime": "01/01/19 00:05:13"
    },
    {
        "altitude": "16",
        "bikes": "14",
        "id": "143",
        "latitude": "41.40325",
        "longitude": "2.19606",
        "nearbyStations": "42, 144, 152, 153, 428",
        "slots": "12",
        "status": "OPN",
        "streetName": "Sancho de Ávila",
        "streetNumber": "170",
        "type": "BIKE",
        "updateTime": "01/01/19 00:05:13"
    },
    {
        "altitude": "16",
        "bikes": "25",
        "id": "144",
        "latitude": "41.40562",
        "longitude": "2.19764",
        "nearbyStations": "42, 143, 150, 286",
        "slots": "2",
        "status": "OPN",
        "streetName": "Castella",
        "streetNumber": "28",
        "type": "BIKE",
        "updateTime": "01/01/19 00:05:13"
    },
    {
        "altitude": "9",
        "bikes": "22",
        "id": "145",
        "latitude": "41.40982",
        "longitude": "2.202904",
        "nearbyStations": "135, 146, 150, 156",
        "slots": "3",
        "status": "OPN",
        "streetName": "Pere IV",
        "streetNumber": "301",
        "type": "BIKE",
        "updateTime": "01/01/19 00:05:13"
    },
    {
        "altitude": "9",
        "bikes": "15",
        "id": "146",
        "latitude": "41.415191",
        "longitude": "2.207111",
        "nearbyStations": "136, 137, 138, 145",
        "slots": "0",
        "status": "OPN",
        "streetName": "Pere IV",
        "streetNumber": "449",
        "type": "BIKE",
        "updateTime": "01/01/19 00:05:13"
    },
    {
        "altitude": "5",
        "bikes": "23",
        "id": "147",
        "latitude": "41.416018",
        "longitude": "2.212658",
        "nearbyStations": "146, 157, 158, 159",
        "slots": "3",
        "status": "OPN",
        "streetName": "Rambla Prim",
        "streetNumber": "79",
        "type": "BIKE",
        "updateTime": "01/01/19 00:05:13"
    },
    {
        "altitude": "79",
        "bikes": "26",
        "id": "148",
        "latitude": "41.378486",
        "longitude": "2.163404",
        "nearbyStations": "70, 113, 388, 415",
        "slots": "0",
        "status": "OPN",
        "streetName": "Ronda Sant Pau",
        "streetNumber": "79",
        "type": "BIKE",
        "updateTime": "01/01/19 00:05:13"
    },
    {
        "altitude": "11",
        "bikes": "3",
        "id": "149",
        "latitude": "41.395905",
        "longitude": "2.192958",
        "nearbyStations": "45, 48, 118, 409",
        "slots": "24",
        "status": "OPN",
        "streetName": "Pujades",
        "streetNumber": "57B",
        "type": "BIKE",
        "updateTime": "01/01/19 00:05:13"
    },
    {
        "altitude": "10",
        "bikes": "27",
        "id": "150",
        "latitude": "41.406549",
        "longitude": "2.203112",
        "nearbyStations": "144, 145, 154, 155",
        "slots": "0",
        "status": "OPN",
        "streetName": "Espronceda",
        "streetNumber": "124",
        "type": "BIKE",
        "updateTime": "01/01/19 00:05:13"
    },
    {
        "altitude": "6",
        "bikes": "21",
        "id": "151",
        "latitude": "41.40065",
        "longitude": "2.19719",
        "nearbyStations": "152, 153, 211, 393, 428",
        "slots": "3",
        "status": "OPN",
        "streetName": "Pallars",
        "streetNumber": "462",
        "type": "BIKE",
        "updateTime": "01/01/19 00:05:13"
    },
    {
        "altitude": "11",
        "bikes": "16",
        "id": "152",
        "latitude": "41.39925",
        "longitude": "2.197421",
        "nearbyStations": "143, 149, 153, 393",
        "slots": "11",
        "status": "OPN",
        "streetName": "Pujades",
        "streetNumber": "121",
        "type": "BIKE",
        "updateTime": "01/01/19 00:05:13"
    },
    {
        "altitude": "10",
        "bikes": "9",
        "id": "153",
        "latitude": "41.401778",
        "longitude": "2.200769",
        "nearbyStations": "152, 154, 165, 393, 428",
        "slots": "17",
        "status": "OPN",
        "streetName": "Pujades",
        "streetNumber": "173",
        "type": "BIKE",
        "updateTime": "01/01/19 00:05:13"
    },
    {
        "altitude": "10",
        "bikes": "21",
        "id": "154",
        "latitude": "41.402454",
        "longitude": "2.201656",
        "nearbyStations": "141, 153, 165, 382",
        "slots": "6",
        "status": "OPN",
        "streetName": "Pujades",
        "streetNumber": "191",
        "type": "BIKE",
        "updateTime": "01/01/19 00:05:13"
    },
    {
        "altitude": "10",
        "bikes": "26",
        "id": "155",
        "latitude": "41.406977",
        "longitude": "2.207602",
        "nearbyStations": "150, 156, 162, 382",
        "slots": "6",
        "status": "OPN",
        "streetName": "Pujades",
        "streetNumber": "311",
        "type": "BIKE",
        "updateTime": "01/01/19 00:05:13"
    },
    {
        "altitude": "5",
        "bikes": "8",
        "id": "156",
        "latitude": "41.409017",
        "longitude": "2.20881",
        "nearbyStations": "145, 155, 157, 159",
        "slots": "16",
        "status": "OPN",
        "streetName": "Diagonal",
        "streetNumber": "46",
        "type": "BIKE",
        "updateTime": "01/01/19 00:05:13"
    },
    {
        "altitude": "0",
        "bikes": "25",
        "id": "157",
        "latitude": "41.412947",
        "longitude": "2.217819",
        "nearbyStations": "35, 147, 158, 159, 160",
        "slots": "0",
        "status": "OPN",
        "streetName": "C/ LLULL - RBLA. PRIM",
        "streetNumber": "465",
        "type": "BIKE",
        "updateTime": "01/01/19 00:05:13"
    },
    {
        "altitude": "1",
        "bikes": "23",
        "id": "158",
        "latitude": "41.411741",
        "longitude": "2.218546",
        "nearbyStations": "35, 156, 157, 159, 160",
        "slots": "3",
        "status": "OPN",
        "streetName": "Rambla de Prim",
        "streetNumber": "19",
        "type": "BIKE",
        "updateTime": "01/01/19 00:05:13"
    },
    {
        "altitude": "5",
        "bikes": "30",
        "id": "159",
        "latitude": "41.410882",
        "longitude": "2.216703",
        "nearbyStations": "35, 156, 157, 158, 160",
        "slots": "3",
        "status": "OPN",
        "streetName": "Avda. Diagonal",
        "streetNumber": "26",
        "type": "BIKE",
        "updateTime": "01/01/19 00:05:13"
    },
    {
        "altitude": "1",
        "bikes": "31",
        "id": "160",
        "latitude": "41.411026",
        "longitude": "2.219377",
        "nearbyStations": "35, 156, 157, 158, 159",
        "slots": "1",
        "status": "OPN",
        "streetName": "Avda. d'Eduard Maristany",
        "streetNumber": "1",
        "type": "BIKE",
        "updateTime": "01/01/19 00:05:13"
    },
    {
        "altitude": "11",
        "bikes": "18",
        "id": "161",
        "latitude": "41.395009",
        "longitude": "2.196308",
        "nearbyStations": "49, 149, 163, 409",
        "slots": "9",
        "status": "OPN",
        "streetName": "Ramon Turro",
        "streetNumber": "91",
        "type": "BIKE",
        "updateTime": "01/01/19 00:05:13"
    },
    {
        "altitude": "0",
        "bikes": "9",
        "id": "162",
        "latitude": "41.403908",
        "longitude": "2.208436",
        "nearbyStations": "155, 166, 167, 168",
        "slots": "17",
        "status": "OPN",
        "streetName": "Ramon Turro",
        "streetNumber": "292",
        "type": "BIKE",
        "updateTime": "01/01/19 00:05:13"
    },
    {
        "altitude": "11",
        "bikes": "12",
        "id": "163",
        "latitude": "41.3942",
        "longitude": "2.20077",
        "nearbyStations": "49, 117, 161, 172",
        "slots": "14",
        "status": "OPN",
        "streetName": "Avda. Icaria",
        "streetNumber": "202",
        "type": "BIKE",
        "updateTime": "01/01/19 00:05:13"
    },
    {
        "altitude": "33",
        "bikes": "1",
        "id": "164",
        "latitude": "41.411901",
        "longitude": "2.177895",
        "nearbyStations": "20, 21, 177, 280",
        "slots": "25",
        "status": "OPN",
        "streetName": "Independència",
        "streetNumber": "379",
        "type": "BIKE",
        "updateTime": "01/01/19 00:05:13"
    },
    {
        "altitude": "0",
        "bikes": "13",
        "id": "165",
        "latitude": "41.399196",
        "longitude": "2.204253",
        "nearbyStations": "153, 154, 166, 173",
        "slots": "9",
        "status": "OPN",
        "streetName": "Carrer del Doctor Trueta",
        "streetNumber": "221",
        "type": "BIKE",
        "updateTime": "01/01/19 00:05:13"
    },
    {
        "altitude": "10",
        "bikes": "21",
        "id": "166",
        "latitude": "41.400533",
        "longitude": "2.206539",
        "nearbyStations": "162, 165, 173, 174",
        "slots": "0",
        "status": "OPN",
        "streetName": "Bilbao",
        "streetNumber": "11",
        "type": "BIKE",
        "updateTime": "01/01/19 00:05:13"
    },
    {
        "altitude": "0",
        "bikes": "8",
        "id": "167",
        "latitude": "41.402561",
        "longitude": "2.210538",
        "nearbyStations": "162, 166, 168, 176",
        "slots": "12",
        "status": "OPN",
        "streetName": "Bac de Roda",
        "streetNumber": "11",
        "type": "BIKE",
        "updateTime": "01/01/19 00:05:13"
    },
    {
        "altitude": "0",
        "bikes": "1",
        "id": "168",
        "latitude": "41.405358",
        "longitude": "2.213677",
        "nearbyStations": "162, 167, 176, 178",
        "slots": "26",
        "status": "OPN",
        "streetName": "Selva de Mar",
        "streetNumber": "0",
        "type": "BIKE",
        "updateTime": "01/01/19 00:05:13"
    },
    {
        "altitude": "0",
        "bikes": "11",
        "id": "169",
        "latitude": "41.389896",
        "longitude": "2.200055",
        "nearbyStations": "11, 170, 172, 397",
        "slots": "15",
        "status": "OPN",
        "streetName": "Avda. Litoral",
        "streetNumber": "40",
        "type": "BIKE",
        "updateTime": "01/01/19 00:05:13"
    },
    {
        "altitude": "1",
        "bikes": "10",
        "id": "170",
        "latitude": "41.389732",
        "longitude": "2.199934",
        "nearbyStations": "117, 169, 172, 397",
        "slots": "16",
        "status": "OPN",
        "streetName": "Avda. Litoral",
        "streetNumber": "40",
        "type": "BIKE",
        "updateTime": "01/01/19 00:05:13"
    },
    {
        "altitude": "0",
        "bikes": "5",
        "id": "171",
        "latitude": "41.391986",
        "longitude": "2.203699",
        "nearbyStations": "163, 169, 170, 172",
        "slots": "22",
        "status": "OPN",
        "streetName": "Passeig Marítim de la Nova Icària",
        "streetNumber": "83",
        "type": "BIKE",
        "updateTime": "01/01/19 00:05:13"
    },
    {
        "altitude": "0",
        "bikes": "18",
        "id": "172",
        "latitude": "41.391831",
        "longitude": "2.203436",
        "nearbyStations": "163, 169, 170, 171",
        "slots": "9",
        "status": "OPN",
        "streetName": "Passeig Marítim de la Nova Icària",
        "streetNumber": "83",
        "type": "BIKE",
        "updateTime": "01/01/19 00:05:13"
    },
    {
        "altitude": "0",
        "bikes": "0",
        "id": "173",
        "latitude": "41.398027",
        "longitude": "2.208982",
        "nearbyStations": "166, 171, 174, 190",
        "slots": "26",
        "status": "OPN",
        "streetName": "Avda. Litoral",
        "streetNumber": "84",
        "type": "BIKE",
        "updateTime": "01/01/19 00:05:13"
    },
    {
        "altitude": "0",
        "bikes": "19",
        "id": "174",
        "latitude": "41.40061",
        "longitude": "2.210461",
        "nearbyStations": "166, 173, 176, 178",
        "slots": "8",
        "status": "OPN",
        "streetName": "Passeig de Garcia Fària",
        "streetNumber": "21",
        "type": "BIKE",
        "updateTime": "01/01/19 00:05:13"
    },
    {
        "altitude": "10",
        "bikes": "0",
        "id": "175",
        "latitude": "41.40666",
        "longitude": "2.20956",
        "nearbyStations": "155, 156, 162, 167",
        "slots": "25",
        "status": "OPN",
        "streetName": "Llull / Provençals",
        "streetNumber": "309",
        "type": "BIKE",
        "updateTime": "01/01/19 00:05:13"
    },
    {
        "altitude": "0",
        "bikes": "17",
        "id": "176",
        "latitude": "41.402541",
        "longitude": "2.212641",
        "nearbyStations": "167, 168, 174, 178",
        "slots": "8",
        "status": "OPN",
        "streetName": "Passeig de Garcia Fària",
        "streetNumber": "37",
        "type": "BIKE",
        "updateTime": "01/01/19 00:05:13"
    },
    {
        "altitude": "0",
        "bikes": "3",
        "id": "177",
        "latitude": "41.411089",
        "longitude": "2.181119",
        "nearbyStations": "20, 121, 164, 280",
        "slots": "22",
        "status": "OPN",
        "streetName": "Rosselló",
        "streetNumber": "557",
        "type": "BIKE",
        "updateTime": "01/01/19 00:05:13"
    },
    {
        "altitude": "0",
        "bikes": "18",
        "id": "178",
        "latitude": "41.405389",
        "longitude": "2.216212",
        "nearbyStations": "162, 166, 167, 168",
        "slots": "9",
        "status": "OPN",
        "streetName": "Passeig de Garcia Fària",
        "streetNumber": "85",
        "type": "BIKE",
        "updateTime": "01/01/19 00:05:13"
    },
    {
        "altitude": "48",
        "bikes": "21",
        "id": "179",
        "latitude": "41.363511",
        "longitude": "2.13677",
        "nearbyStations": "184, 351, 352, 404",
        "slots": "0",
        "status": "OPN",
        "streetName": "Pg. Zona Franca",
        "streetNumber": "244",
        "type": "BIKE",
        "updateTime": "01/01/19 00:05:13"
    },
    {
        "altitude": "50",
        "bikes": "19",
        "id": "180",
        "latitude": "41.36778",
        "longitude": "2.13926",
        "nearbyStations": "179, 181, 182, 183",
        "slots": "8",
        "status": "OPN",
        "streetName": "Gran Via",
        "streetNumber": "181",
        "type": "BIKE",
        "updateTime": "01/01/19 00:05:13"
    },
    {
        "altitude": "50",
        "bikes": "11",
        "id": "181",
        "latitude": "41.36766",
        "longitude": "2.13911",
        "nearbyStations": "179, 180, 182, 183",
        "slots": "16",
        "status": "OPN",
        "streetName": "Gran Via",
        "streetNumber": "180",
        "type": "BIKE",
        "updateTime": "01/01/19 00:05:13"
    },
    {
        "altitude": "61",
        "bikes": "20",
        "id": "182",
        "latitude": "41.371455",
        "longitude": "2.143882",
        "nearbyStations": "96, 180, 183, 420",
        "slots": "3",
        "status": "OPN",
        "streetName": "Gran Via",
        "streetNumber": "273",
        "type": "BIKE",
        "updateTime": "01/01/19 00:05:13"
    },
    {
        "altitude": "61",
        "bikes": "16",
        "id": "183",
        "latitude": "41.372338",
        "longitude": "2.141875",
        "nearbyStations": "181, 182, 185, 420",
        "slots": "10",
        "status": "OPN",
        "streetName": "Gavà",
        "streetNumber": "1",
        "type": "BIKE",
        "updateTime": "01/01/19 00:05:13"
    },
    {
        "altitude": "50",
        "bikes": "14",
        "id": "184",
        "latitude": "41.367504",
        "longitude": "2.134088",
        "nearbyStations": "179, 180, 185, 404",
        "slots": "10",
        "status": "OPN",
        "streetName": "Quetzal",
        "streetNumber": "22",
        "type": "BIKE",
        "updateTime": "01/01/19 00:05:13"
    },
    {
        "altitude": "50",
        "bikes": "14",
        "id": "185",
        "latitude": "41.37046",
        "longitude": "2.138994",
        "nearbyStations": "180, 181, 184, 404",
        "slots": "4",
        "status": "OPN",
        "streetName": "Gavà",
        "streetNumber": "81",
        "type": "BIKE",
        "updateTime": "01/01/19 00:05:13"
    },
    {
        "altitude": "44",
        "bikes": "12",
        "id": "186",
        "latitude": "41.375571",
        "longitude": "2.143812",
        "nearbyStations": "95, 96, 210, 420",
        "slots": "2",
        "status": "OPN",
        "streetName": "Consell de Cent",
        "streetNumber": "6",
        "type": "BIKE",
        "updateTime": "01/01/19 00:05:13"
    },
    {
        "altitude": "24",
        "bikes": "17",
        "id": "187",
        "latitude": "41.376858",
        "longitude": "2.169811",
        "nearbyStations": "50, 54, 416, 427",
        "slots": "0",
        "status": "OPN",
        "streetName": "Carrer de Sant Pau",
        "streetNumber": "89",
        "type": "BIKE",
        "updateTime": "01/01/19 00:05:13"
    },
    {
        "altitude": "45",
        "bikes": "9",
        "id": "188",
        "latitude": "41.375802",
        "longitude": "2.135973",
        "nearbyStations": "210, 313, 354, 421",
        "slots": "17",
        "status": "OPN",
        "streetName": "Pl. Sants (Ps. S. Antoni)",
        "streetNumber": "0",
        "type": "BIKE",
        "updateTime": "01/01/19 00:05:13"
    },
    {
        "altitude": "50",
        "bikes": "13",
        "id": "189",
        "latitude": "41.396918",
        "longitude": "2.166163",
        "nearbyStations": "25, 27, 123, 224",
        "slots": "12",
        "status": "OPN",
        "streetName": "Bruc",
        "streetNumber": "130",
        "type": "BIKE",
        "updateTime": "01/01/19 00:05:13"
    },
    {
        "altitude": "0",
        "bikes": "18",
        "id": "190",
        "latitude": "41.39606",
        "longitude": "2.207803",
        "nearbyStations": "165, 171, 172, 173",
        "slots": "10",
        "status": "OPN",
        "streetName": "Avinguda Litoral",
        "streetNumber": "72",
        "type": "BIKE",
        "updateTime": "01/01/19 00:05:13"
    },
    {
        "altitude": "44",
        "bikes": "1",
        "id": "191",
        "latitude": "41.382564",
        "longitude": "2.149094",
        "nearbyStations": "81, 87, 111, 384",
        "slots": "25",
        "status": "OPN",
        "streetName": "Rocafort",
        "streetNumber": "167",
        "type": "BIKE",
        "updateTime": "01/01/19 00:05:13"
    },
    {
        "altitude": "40",
        "bikes": "3",
        "id": "192",
        "latitude": "41.378629",
        "longitude": "2.133467",
        "nearbyStations": "188, 193, 314",
        "slots": "16",
        "status": "OPN",
        "streetName": "Joan Güell",
        "streetNumber": "50",
        "type": "BIKE",
        "updateTime": "01/01/19 00:05:13"
    },
    {
        "altitude": "46",
        "bikes": "0",
        "id": "193",
        "latitude": "41.381311",
        "longitude": "2.128912",
        "nearbyStations": "192, 199, 312",
        "slots": "17",
        "status": "OPN",
        "streetName": "Figols",
        "streetNumber": "1",
        "type": "BIKE",
        "updateTime": "01/01/19 00:05:13"
    },
    {
        "altitude": "45",
        "bikes": "0",
        "id": "195",
        "latitude": "41.381888",
        "longitude": "2.135433",
        "nearbyStations": "192, 196, 367",
        "slots": "26",
        "status": "OPN",
        "streetName": "Vallespir",
        "streetNumber": "130",
        "type": "BIKE",
        "updateTime": "01/01/19 00:05:13"
    },
    {
        "altitude": "30",
        "bikes": "1",
        "id": "196",
        "latitude": "41.383241",
        "longitude": "2.139363",
        "nearbyStations": "197, 201",
        "slots": "23",
        "status": "OPN",
        "streetName": "Berlín",
        "streetNumber": "38",
        "type": "BIKE",
        "updateTime": "01/01/19 00:05:13"
    },
    {
        "altitude": "57",
        "bikes": "1",
        "id": "197",
        "latitude": "41.38712",
        "longitude": "2.141039",
        "nearbyStations": "75, 196, 201, 367",
        "slots": "26",
        "status": "OPN",
        "streetName": "Gelabert",
        "streetNumber": "1",
        "type": "BIKE",
        "updateTime": "01/01/19 00:05:13"
    },
    {
        "altitude": "58",
        "bikes": "3",
        "id": "198",
        "latitude": "41.38451",
        "longitude": "2.133617",
        "nearbyStations": "196, 200, 201, 205",
        "slots": "22",
        "status": "OPN",
        "streetName": "Vallespir",
        "streetNumber": "194",
        "type": "BIKE",
        "updateTime": "01/01/19 00:05:13"
    },
    {
        "altitude": "46",
        "bikes": "0",
        "id": "199",
        "latitude": "41.38182",
        "longitude": "2.126933",
        "nearbyStations": "193, 200, 202, 312",
        "slots": "26",
        "status": "OPN",
        "streetName": "Mejía Lequerica",
        "streetNumber": "2",
        "type": "BIKE",
        "updateTime": "01/01/19 00:05:13"
    },
    {
        "altitude": "60",
        "bikes": "0",
        "id": "200",
        "latitude": "41.383756",
        "longitude": "2.131273",
        "nearbyStations": "193, 196, 198",
        "slots": "24",
        "status": "OPN",
        "streetName": "Can bruixa",
        "streetNumber": "1",
        "type": "BIKE",
        "updateTime": "01/01/19 00:05:13"
    },
    {
        "altitude": "58",
        "bikes": "2",
        "id": "201",
        "latitude": "41.387787",
        "longitude": "2.134341",
        "nearbyStations": "198, 206, 207, 208",
        "slots": "29",
        "status": "OPN",
        "streetName": "Numància",
        "streetNumber": "136",
        "type": "BIKE",
        "updateTime": "01/01/19 00:05:13"
    },
    {
        "altitude": "60",
        "bikes": "0",
        "id": "202",
        "latitude": "41.385331",
        "longitude": "2.128737",
        "nearbyStations": "199, 200, 203, 205",
        "slots": "25",
        "status": "OPN",
        "streetName": "Carrer de les Corts",
        "streetNumber": "20",
        "type": "BIKE",
        "updateTime": "01/01/19 00:05:13"
    },
    {
        "altitude": "60",
        "bikes": "12",
        "id": "203",
        "latitude": "41.388742",
        "longitude": "2.128503",
        "nearbyStations": "204, 205, 212, 284",
        "slots": "20",
        "status": "OPN",
        "streetName": "Avda. Diagonal",
        "streetNumber": "664",
        "type": "BIKE",
        "updateTime": "01/01/19 00:05:13"
    },
    {
        "altitude": "60",
        "bikes": "1",
        "id": "204",
        "latitude": "41.388011",
        "longitude": "2.125593",
        "nearbyStations": "202, 203, 205, 212",
        "slots": "31",
        "status": "OPN",
        "streetName": "Avda. Diagonal",
        "streetNumber": "668",
        "type": "BIKE",
        "updateTime": "01/01/19 00:05:13"
    },
    {
        "altitude": "60",
        "bikes": "2",
        "id": "205",
        "latitude": "41.387465",
        "longitude": "2.130838",
        "nearbyStations": "198, 202, 203, 284",
        "slots": "31",
        "status": "OPN",
        "streetName": "Europa",
        "streetNumber": "25",
        "type": "BIKE",
        "updateTime": "01/01/19 00:05:13"
    },
    {
        "altitude": "60",
        "bikes": "0",
        "id": "206",
        "latitude": "41.389845",
        "longitude": "2.13284",
        "nearbyStations": "201, 207, 208, 284",
        "slots": "32",
        "status": "OPN",
        "streetName": "Avda. Diagonal",
        "streetNumber": "650",
        "type": "BIKE",
        "updateTime": "01/01/19 00:05:13"
    },
    {
        "altitude": "57",
        "bikes": "0",
        "id": "207",
        "latitude": "41.390828",
        "longitude": "2.136665",
        "nearbyStations": "201, 204, 206, 208",
        "slots": "21",
        "status": "OPN",
        "streetName": "Avda. Diagonal",
        "streetNumber": "634",
        "type": "BIKE",
        "updateTime": "01/01/19 00:05:13"
    },
    {
        "altitude": "57",
        "bikes": "12",
        "id": "208",
        "latitude": "41.391451",
        "longitude": "2.139116",
        "nearbyStations": "201, 206, 207, 366",
        "slots": "20",
        "status": "OPN",
        "streetName": "Avda. Diagonal",
        "streetNumber": "630",
        "type": "BIKE",
        "updateTime": "01/01/19 00:05:13"
    },
    {
        "altitude": "41",
        "bikes": "2",
        "id": "209",
        "latitude": "41.385755",
        "longitude": "2.161004",
        "nearbyStations": "71, 78, 84, 261",
        "slots": "24",
        "status": "OPN",
        "streetName": "Diputació",
        "streetNumber": "200",
        "type": "BIKE",
        "updateTime": "01/01/19 00:05:13"
    },
    {
        "altitude": "50",
        "bikes": "11",
        "id": "210",
        "latitude": "41.37453",
        "longitude": "2.142356",
        "nearbyStations": "183, 185, 186, 421",
        "slots": "13",
        "status": "OPN",
        "streetName": "Vilardell",
        "streetNumber": "18",
        "type": "BIKE",
        "updateTime": "01/01/19 00:05:13"
    },
    {
        "altitude": "18",
        "bikes": "27",
        "id": "211",
        "latitude": "41.398848",
        "longitude": "2.190291",
        "nearbyStations": "16, 44, 48, 142",
        "slots": "4",
        "status": "OPN",
        "streetName": "Sancho de Ávila",
        "streetNumber": "60",
        "type": "BIKE",
        "updateTime": "01/01/19 00:05:13"
    },
    {
        "altitude": "82",
        "bikes": "0",
        "id": "212",
        "latitude": "41.39239",
        "longitude": "2.130945",
        "nearbyStations": "203, 206, 284, 325",
        "slots": "27",
        "status": "OPN",
        "streetName": "Av. Sarrià",
        "streetNumber": "163",
        "type": "BIKE",
        "updateTime": "01/01/19 00:05:13"
    },
    {
        "altitude": "79",
        "bikes": "0",
        "id": "213",
        "latitude": "41.393783",
        "longitude": "2.135078",
        "nearbyStations": "207, 208, 214, 215",
        "slots": "30",
        "status": "OPN",
        "streetName": "Sant Fe de Nou Mèxic",
        "streetNumber": "2",
        "type": "BIKE",
        "updateTime": "01/01/19 00:05:13"
    },
    {
        "altitude": "85",
        "bikes": "0",
        "id": "214",
        "latitude": "41.395251",
        "longitude": "2.133541",
        "nearbyStations": "207, 208, 212, 213",
        "slots": "24",
        "status": "OPN",
        "streetName": "José de Agulló",
        "streetNumber": "19",
        "type": "BIKE",
        "updateTime": "01/01/19 00:05:13"
    },
    {
        "altitude": "79",
        "bikes": "0",
        "id": "215",
        "latitude": "41.39412",
        "longitude": "2.138146",
        "nearbyStations": "102, 213, 214, 324",
        "slots": "14",
        "status": "OPN",
        "streetName": "Carrer de Ganduxer",
        "streetNumber": "29",
        "type": "BIKE",
        "updateTime": "01/01/19 00:05:13"
    },
    {
        "altitude": "69",
        "bikes": "0",
        "id": "216",
        "latitude": "41.396809",
        "longitude": "2.144534",
        "nearbyStations": "101, 217, 219, 319",
        "slots": "26",
        "status": "OPN",
        "streetName": "Madrazo",
        "streetNumber": "131",
        "type": "BIKE",
        "updateTime": "01/01/19 00:05:13"
    },
    {
        "altitude": "69",
        "bikes": "0",
        "id": "217",
        "latitude": "41.398463",
        "longitude": "2.143924",
        "nearbyStations": "102, 216, 219, 319",
        "slots": "27",
        "status": "OPN",
        "streetName": "Rector Ubach",
        "streetNumber": "24",
        "type": "BIKE",
        "updateTime": "01/01/19 00:05:13"
    },
    {
        "altitude": "28",
        "bikes": "0",
        "id": "218",
        "latitude": "41.404114",
        "longitude": "2.183203",
        "nearbyStations": "30, 369, 371",
        "slots": "26",
        "status": "OPN",
        "streetName": "Consell de Cent",
        "streetNumber": "566",
        "type": "BIKE",
        "updateTime": "01/01/19 00:05:13"
    },
    {
        "altitude": "69",
        "bikes": "0",
        "id": "219",
        "latitude": "41.397698",
        "longitude": "2.147358",
        "nearbyStations": "107, 216, 217, 220",
        "slots": "27",
        "status": "OPN",
        "streetName": "Carre Laforja",
        "streetNumber": "74",
        "type": "BIKE",
        "updateTime": "01/01/19 00:05:13"
    },
    {
        "altitude": "59",
        "bikes": "3",
        "id": "220",
        "latitude": "41.396229",
        "longitude": "2.151482",
        "nearbyStations": "68, 88, 107, 219",
        "slots": "24",
        "status": "OPN",
        "streetName": "Tuset",
        "streetNumber": "19",
        "type": "BIKE",
        "updateTime": "01/01/19 00:05:13"
    },
    {
        "altitude": "71",
        "bikes": "1",
        "id": "221",
        "latitude": "41.402535",
        "longitude": "2.152519",
        "nearbyStations": "107, 222, 229, 230",
        "slots": "21",
        "status": "OPN",
        "streetName": "Gran de Gràcia",
        "streetNumber": "155",
        "type": "BIKE",
        "updateTime": "01/01/19 00:05:13"
    },
    {
        "altitude": "71",
        "bikes": "0",
        "id": "222",
        "latitude": "41.40124",
        "longitude": "2.157483",
        "nearbyStations": "107, 221, 226, 229",
        "slots": "27",
        "status": "OPN",
        "streetName": "Carrer del Canó",
        "streetNumber": "1",
        "type": "BIKE",
        "updateTime": "01/01/19 00:05:13"
    },
    {
        "altitude": "50",
        "bikes": "1",
        "id": "223",
        "latitude": "41.398311",
        "longitude": "2.159865",
        "nearbyStations": "68, 224, 225, 374",
        "slots": "33",
        "status": "OPN",
        "streetName": "Carrer de Bonavista",
        "streetNumber": "14",
        "type": "BIKE",
        "updateTime": "01/01/19 00:05:13"
    },
    {
        "altitude": "55",
        "bikes": "0",
        "id": "224",
        "latitude": "41.399945",
        "longitude": "2.164389",
        "nearbyStations": "27, 108, 123, 189",
        "slots": "24",
        "status": "OPN",
        "streetName": "Girona",
        "streetNumber": "176",
        "type": "BIKE",
        "updateTime": "01/01/19 00:05:13"
    },
    {
        "altitude": "44",
        "bikes": "0",
        "id": "225",
        "latitude": "41.384956",
        "longitude": "2.150814",
        "nearbyStations": "83, 87, 89, 191",
        "slots": "25",
        "status": "OPN",
        "streetName": "Mallorca",
        "streetNumber": "84",
        "type": "BIKE",
        "updateTime": "01/01/19 00:05:13"
    },
    {
        "altitude": "59",
        "bikes": "3",
        "id": "226",
        "latitude": "41.403465",
        "longitude": "2.161096",
        "nearbyStations": "106, 108, 122, 231",
        "slots": "21",
        "status": "OPN",
        "streetName": "Montmany",
        "streetNumber": "1",
        "type": "BIKE",
        "updateTime": "01/01/19 00:05:13"
    },
    {
        "altitude": "59",
        "bikes": "0",
        "id": "227",
        "latitude": "41.407837",
        "longitude": "2.158678",
        "nearbyStations": "106, 228, 231",
        "slots": "25",
        "status": "OPN",
        "streetName": "Torrent de Les Flors",
        "streetNumber": "102",
        "type": "BIKE",
        "updateTime": "01/01/19 00:05:13"
    },
    {
        "altitude": "71",
        "bikes": "0",
        "id": "228",
        "latitude": "41.40694",
        "longitude": "2.155794",
        "nearbyStations": "106, 227, 229, 230",
        "slots": "21",
        "status": "OPN",
        "streetName": "Pl. Del Nord",
        "streetNumber": "5",
        "type": "BIKE",
        "updateTime": "01/01/19 00:05:13"
    },
    {
        "altitude": "71",
        "bikes": "1",
        "id": "229",
        "latitude": "41.405107",
        "longitude": "2.156874",
        "nearbyStations": "106, 226, 227, 228",
        "slots": "26",
        "status": "OPN",
        "streetName": "Carrer de la Santacreu",
        "streetNumber": "2",
        "type": "BIKE",
        "updateTime": "01/01/19 00:05:13"
    },
    {
        "altitude": "71",
        "bikes": "1",
        "id": "230",
        "latitude": "41.405986",
        "longitude": "2.151633",
        "nearbyStations": "221, 222, 228, 229",
        "slots": "26",
        "status": "OPN",
        "streetName": "C. De Nil Fabra",
        "streetNumber": "16",
        "type": "BIKE",
        "updateTime": "01/01/19 00:05:13"
    },
    {
        "altitude": "82",
        "bikes": "3",
        "id": "231",
        "latitude": "41.407202",
        "longitude": "2.163476",
        "nearbyStations": "106, 122, 227, 276",
        "slots": "20",
        "status": "OPN",
        "streetName": "Pi i Margall",
        "streetNumber": "38",
        "type": "BIKE",
        "updateTime": "01/01/19 00:05:13"
    },
    {
        "altitude": "1",
        "bikes": "27",
        "id": "232",
        "latitude": "41.373509",
        "longitude": "2.171002",
        "nearbyStations": "50, 233, 234, 427",
        "slots": "0",
        "status": "OPN",
        "streetName": "Vilà i Vilà",
        "streetNumber": "45",
        "type": "BIKE",
        "updateTime": "01/01/19 00:05:13"
    },
    {
        "altitude": "1",
        "bikes": "18",
        "id": "233",
        "latitude": "41.371965",
        "longitude": "2.166871",
        "nearbyStations": "50, 232, 234, 427",
        "slots": "7",
        "status": "OPN",
        "streetName": "Nou de la Rambla",
        "streetNumber": "164",
        "type": "BIKE",
        "updateTime": "01/01/19 00:05:13"
    },
    {
        "altitude": "44",
        "bikes": "2",
        "id": "234",
        "latitude": "41.371515",
        "longitude": "2.162166",
        "nearbyStations": "85, 233, 235, 236",
        "slots": "25",
        "status": "OPN",
        "streetName": "Passeig de l'Exposició",
        "streetNumber": "30",
        "type": "BIKE",
        "updateTime": "01/01/19 00:05:13"
    },
    {
        "altitude": "40",
        "bikes": "24",
        "id": "235",
        "latitude": "41.375065",
        "longitude": "2.165839",
        "nearbyStations": "85, 129, 234, 236",
        "slots": "2",
        "status": "OPN",
        "streetName": "Paral.lel",
        "streetNumber": "98",
        "type": "BIKE",
        "updateTime": "01/01/19 00:05:13"
    },
    {
        "altitude": "47",
        "bikes": "20",
        "id": "236",
        "latitude": "41.375127",
        "longitude": "2.152769",
        "nearbyStations": "85, 94, 235, 237",
        "slots": "1",
        "status": "OPN",
        "streetName": "Avinguda Paral.lel",
        "streetNumber": "194",
        "type": "BIKE",
        "updateTime": "01/01/19 00:05:13"
    },
    {
        "altitude": "67",
        "bikes": "2",
        "id": "237",
        "latitude": "41.372891",
        "longitude": "2.154471",
        "nearbyStations": "85, 93, 234, 236",
        "slots": "24",
        "status": "OPN",
        "streetName": "Rius i Taulet",
        "streetNumber": "4",
        "type": "BIKE",
        "updateTime": "01/01/19 00:05:13"
    },
    {
        "altitude": "17",
        "bikes": "11",
        "id": "238",
        "latitude": "41.415684",
        "longitude": "2.190986",
        "nearbyStations": "127, 240, 248, 289",
        "slots": "14",
        "status": "OPN",
        "streetName": "Espronceda",
        "streetNumber": "298",
        "type": "BIKE",
        "updateTime": "01/01/19 00:05:13"
    },
    {
        "altitude": "18",
        "bikes": "20",
        "id": "239",
        "latitude": "41.417323",
        "longitude": "2.184534",
        "nearbyStations": "240, 241, 248, 315",
        "slots": "5",
        "status": "OPN",
        "streetName": "Indústria",
        "streetNumber": "329",
        "type": "BIKE",
        "updateTime": "01/01/19 00:05:13"
    },
    {
        "altitude": "18",
        "bikes": "17",
        "id": "240",
        "latitude": "41.417763",
        "longitude": "2.187558",
        "nearbyStations": "128, 238, 248, 289",
        "slots": "7",
        "status": "OPN",
        "streetName": "Josep Estivill",
        "streetNumber": "32",
        "type": "BIKE",
        "updateTime": "01/01/19 00:05:13"
    },
    {
        "altitude": "40",
        "bikes": "0",
        "id": "241",
        "latitude": "41.419337",
        "longitude": "2.180482",
        "nearbyStations": "239, 240, 248, 315",
        "slots": "31",
        "status": "OPN",
        "streetName": "Teodor Llorente",
        "streetNumber": "2",
        "type": "BIKE",
        "updateTime": "01/01/19 00:05:13"
    },
    {
        "altitude": "37",
        "bikes": "3",
        "id": "242",
        "latitude": "41.424451",
        "longitude": "2.177284",
        "nearbyStations": "241, 243, 244, 291",
        "slots": "23",
        "status": "OPN",
        "streetName": "Ramon Albó",
        "streetNumber": "1",
        "type": "BIKE",
        "updateTime": "01/01/19 00:05:13"
    },
    {
        "altitude": "37",
        "bikes": "5",
        "id": "243",
        "latitude": "41.423939",
        "longitude": "2.181298",
        "nearbyStations": "241, 242, 244, 247",
        "slots": "22",
        "status": "OPN",
        "streetName": "Alenxadre Galí",
        "streetNumber": "1",
        "type": "BIKE",
        "updateTime": "01/01/19 00:05:13"
    },
    {
        "altitude": "47",
        "bikes": "5",
        "id": "244",
        "latitude": "41.426896",
        "longitude": "2.178511",
        "nearbyStations": "242, 243, 251, 300",
        "slots": "22",
        "status": "OPN",
        "streetName": "Felip II",
        "streetNumber": "214",
        "type": "BIKE",
        "updateTime": "01/01/19 00:05:13"
    },
    {
        "altitude": "18",
        "bikes": "0",
        "id": "246",
        "latitude": "41.422844",
        "longitude": "2.186637",
        "nearbyStations": "247, 249, 250, 251",
        "slots": "13",
        "status": "OPN",
        "streetName": "Garcilaso",
        "streetNumber": "77",
        "type": "BIKE",
        "updateTime": "01/01/19 00:05:13"
    },
    {
        "altitude": "19",
        "bikes": "2",
        "id": "247",
        "latitude": "41.421992",
        "longitude": "2.184806",
        "nearbyStations": "241, 243, 246, 251",
        "slots": "19",
        "status": "OPN",
        "streetName": "Felipe II",
        "streetNumber": "112",
        "type": "BIKE",
        "updateTime": "01/01/19 00:05:13"
    },
    {
        "altitude": "18",
        "bikes": "8",
        "id": "248",
        "latitude": "41.418208",
        "longitude": "2.190374",
        "nearbyStations": "128, 238, 240, 423",
        "slots": "18",
        "status": "OPN",
        "streetName": "Palència",
        "streetNumber": "31",
        "type": "BIKE",
        "updateTime": "01/01/19 00:05:13"
    },
    {
        "altitude": "18",
        "bikes": "15",
        "id": "249",
        "latitude": "41.425216",
        "longitude": "2.188997",
        "nearbyStations": "246, 250, 251, 391",
        "slots": "6",
        "status": "OPN",
        "streetName": "Açores",
        "streetNumber": "1",
        "type": "BIKE",
        "updateTime": "01/01/19 00:05:13"
    },
    {
        "altitude": "24",
        "bikes": "8",
        "id": "250",
        "latitude": "41.425905",
        "longitude": "2.19115",
        "nearbyStations": "249, 252, 253, 254",
        "slots": "14",
        "status": "OPN",
        "streetName": "Portugal",
        "streetNumber": "3",
        "type": "BIKE",
        "updateTime": "01/01/19 00:05:13"
    },
    {
        "altitude": "27",
        "bikes": "6",
        "id": "251",
        "latitude": "41.425405",
        "longitude": "2.185226",
        "nearbyStations": "243, 246, 247, 249",
        "slots": "24",
        "status": "OPN",
        "streetName": "Cardenal Tedeschini",
        "streetNumber": "13",
        "type": "BIKE",
        "updateTime": "01/01/19 00:05:13"
    },
    {
        "altitude": "18",
        "bikes": "26",
        "id": "252",
        "latitude": "41.429953",
        "longitude": "2.193185",
        "nearbyStations": "249, 250, 254, 391",
        "slots": "0",
        "status": "OPN",
        "streetName": "Rambla Onze de Setembre",
        "streetNumber": "31",
        "type": "BIKE",
        "updateTime": "01/01/19 00:05:13"
    },
    {
        "altitude": "18",
        "bikes": "26",
        "id": "253",
        "latitude": "41.429977",
        "longitude": "2.191821",
        "nearbyStations": "250, 252, 254",
        "slots": "0",
        "status": "OPN",
        "streetName": "Onze de Setembre",
        "streetNumber": "37",
        "type": "BIKE",
        "updateTime": "01/01/19 00:05:13"
    },
    {
        "altitude": "25",
        "bikes": "10",
        "id": "254",
        "latitude": "41.429985",
        "longitude": "2.190163",
        "nearbyStations": "250, 252, 253, 255",
        "slots": "13",
        "status": "OPN",
        "streetName": "Gran de Sant Andreu",
        "streetNumber": "69",
        "type": "BIKE",
        "updateTime": "01/01/19 00:05:13"
    },
    {
        "altitude": "27",
        "bikes": "19",
        "id": "255",
        "latitude": "41.431183",
        "longitude": "2.185852",
        "nearbyStations": "253, 254, 274",
        "slots": "3",
        "status": "OPN",
        "streetName": "Irlanda",
        "streetNumber": "11",
        "type": "BIKE",
        "updateTime": "01/01/19 00:05:13"
    },
    {
        "altitude": "25",
        "bikes": "0",
        "id": "256",
        "latitude": "41.43608",
        "longitude": "2.189542",
        "nearbyStations": "255, 259, 285",
        "slots": "24",
        "status": "CLS",
        "streetName": "Malats",
        "streetNumber": "28",
        "type": "BIKE",
        "updateTime": "01/01/19 00:05:13"
    },
    {
        "altitude": "15",
        "bikes": "4",
        "id": "258",
        "latitude": "41.442167",
        "longitude": "2.193032",
        "nearbyStations": "259, 263",
        "slots": "22",
        "status": "OPN",
        "streetName": "Fernando Pessoa",
        "streetNumber": "41",
        "type": "BIKE",
        "updateTime": "01/01/19 00:05:13"
    },
    {
        "altitude": "25",
        "bikes": "19",
        "id": "259",
        "latitude": "41.439109",
        "longitude": "2.185818",
        "nearbyStations": "258, 267",
        "slots": "6",
        "status": "OPN",
        "streetName": "Carrer de Bartrina",
        "streetNumber": "14",
        "type": "BIKE",
        "updateTime": "01/01/19 00:05:13"
    },
    {
        "altitude": "19",
        "bikes": "17",
        "id": "260",
        "latitude": "41.436163",
        "longitude": "2.192994",
        "nearbyStations": "263, 264",
        "slots": "7",
        "status": "OPN",
        "streetName": "Plaça de l'Estació",
        "streetNumber": "6",
        "type": "BIKE",
        "updateTime": "01/01/19 00:05:13"
    },
    {
        "altitude": "35",
        "bikes": "23",
        "id": "261",
        "latitude": "41.382206",
        "longitude": "2.160644",
        "nearbyStations": "70, 71, 84, 90",
        "slots": "4",
        "status": "OPN",
        "streetName": "Villarroel",
        "streetNumber": "39",
        "type": "BIKE",
        "updateTime": "01/01/19 00:05:13"
    },
    {
        "altitude": "40",
        "bikes": "20",
        "id": "262",
        "latitude": "41.379821",
        "longitude": "2.152496",
        "nearbyStations": "81, 82, 111, 191",
        "slots": "11",
        "status": "OPN",
        "streetName": "Rocafort",
        "streetNumber": "103",
        "type": "BIKE",
        "updateTime": "01/01/19 00:05:13"
    },
    {
        "altitude": "27",
        "bikes": "18",
        "id": "263",
        "latitude": "41.437814",
        "longitude": "2.191039",
        "nearbyStations": "260, 264",
        "slots": "3",
        "status": "OPN",
        "streetName": "Pg.Torras i Bages",
        "streetNumber": "29",
        "type": "BIKE",
        "updateTime": "01/01/19 00:05:13"
    },
    {
        "altitude": "19",
        "bikes": "24",
        "id": "264",
        "latitude": "41.439949",
        "longitude": "2.197033",
        "nearbyStations": "263, 267, 268, 344",
        "slots": "6",
        "status": "OPN",
        "streetName": "República Dominicana",
        "streetNumber": "25",
        "type": "BIKE",
        "updateTime": "01/01/19 00:05:13"
    },
    {
        "altitude": "40",
        "bikes": "9",
        "id": "265",
        "latitude": "41.385467",
        "longitude": "2.158532",
        "nearbyStations": "80, 84, 110, 209",
        "slots": "6",
        "status": "OPN",
        "streetName": "Casanovas",
        "streetNumber": "67",
        "type": "BIKE",
        "updateTime": "01/01/19 00:05:13"
    },
    {
        "altitude": "37",
        "bikes": "7",
        "id": "266",
        "latitude": "41.426841",
        "longitude": "2.184238",
        "nearbyStations": "263, 264, 268, 344",
        "slots": "17",
        "status": "OPN",
        "streetName": "Concepció Arenal",
        "streetNumber": "176",
        "type": "BIKE",
        "updateTime": "01/01/19 00:05:13"
    },
    {
        "altitude": "24",
        "bikes": "15",
        "id": "267",
        "latitude": "41.443395",
        "longitude": "2.190623",
        "nearbyStations": "258, 263, 264, 268",
        "slots": "11",
        "status": "OPN",
        "streetName": "Passeig Torras i Bages",
        "streetNumber": "129",
        "type": "BIKE",
        "updateTime": "01/01/19 00:05:13"
    },
    {
        "altitude": "23",
        "bikes": "23",
        "id": "268",
        "latitude": "41.445705",
        "longitude": "2.192892",
        "nearbyStations": "263, 264, 267, 271",
        "slots": "3",
        "status": "OPN",
        "streetName": "Fernando Pessoa",
        "streetNumber": "72",
        "type": "BIKE",
        "updateTime": "01/01/19 00:05:13"
    },
    {
        "altitude": "23",
        "bikes": "23",
        "id": "269",
        "latitude": "41.448128",
        "longitude": "2.192826",
        "nearbyStations": "264, 268, 270, 271",
        "slots": "3",
        "status": "OPN",
        "streetName": "Via Barcino",
        "streetNumber": "121",
        "type": "BIKE",
        "updateTime": "01/01/19 00:05:13"
    },
    {
        "altitude": "24",
        "bikes": "5",
        "id": "270",
        "latitude": "41.448628",
        "longitude": "2.18976",
        "nearbyStations": "267, 268, 269, 271",
        "slots": "22",
        "status": "OPN",
        "streetName": "Crta. de Ribes (Trinitat Vella)",
        "streetNumber": "77",
        "type": "BIKE",
        "updateTime": "01/01/19 00:05:13"
    },
    {
        "altitude": "18",
        "bikes": "16",
        "id": "271",
        "latitude": "41.450634",
        "longitude": "2.192335",
        "nearbyStations": "267, 268, 269, 270",
        "slots": "4",
        "status": "OPN",
        "streetName": "Via Barcino",
        "streetNumber": "69",
        "type": "BIKE",
        "updateTime": "01/01/19 00:05:13"
    },
    {
        "altitude": "27",
        "bikes": "25",
        "id": "272",
        "latitude": "41.432559",
        "longitude": "2.184264",
        "nearbyStations": "255, 273, 274, 298",
        "slots": "0",
        "status": "OPN",
        "streetName": "Concepció Arenal",
        "streetNumber": "281",
        "type": "BIKE",
        "updateTime": "01/01/19 00:05:13"
    },